[
  {
    "name": "Los Angeles",
    "stateCode": "CA",
    "state": "California",
    "stateFIPS": "06",
    "countyFIPS": "037",
    "countyName": "Los Angeles County",
    "population": 3820914,
    "lat": 34.0522,
    "lng": -118.2437,
    "slug": "los-angeles",
    "tier": 1
  },
  {
    "name": "Chicago",
    "stateCode": "IL",
    "state": "Illinois",
    "stateFIPS": "17",
    "countyFIPS": "031",
    "countyName": "Cook County",
    "population": 2664452,
    "lat": 41.85,
    "lng": -87.65,
    "slug": "chicago",
    "tier": 1
  },
  {
    "name": "Houston",
    "stateCode": "TX",
    "state": "Texas",
    "stateFIPS": "48",
    "countyFIPS": "201",
    "countyName": "Harris County",
    "population": 2314157,
    "lat": 29.7633,
    "lng": -95.3633,
    "slug": "houston",
    "tier": 1
  },
  {
    "name": "Phoenix",
    "stateCode": "AZ",
    "state": "Arizona",
    "stateFIPS": "04",
    "countyFIPS": "013",
    "countyName": "Maricopa County",
    "population": 1650070,
    "lat": 33.4484,
    "lng": -112.074,
    "slug": "phoenix",
    "tier": 1
  },
  {
    "name": "Philadelphia",
    "stateCode": "PA",
    "state": "Pennsylvania",
    "stateFIPS": "42",
    "countyFIPS": "101",
    "countyName": "Philadelphia County",
    "population": 1573916,
    "lat": 39.9524,
    "lng": -75.1636,
    "slug": "philadelphia",
    "tier": 1
  },
  {
    "name": "San Antonio",
    "stateCode": "TX",
    "state": "Texas",
    "stateFIPS": "48",
    "countyFIPS": "029",
    "countyName": "Bexar County",
    "population": 1526656,
    "lat": 29.4241,
    "lng": -98.4936,
    "slug": "san-antonio",
    "tier": 1
  },
  {
    "name": "San Diego",
    "stateCode": "CA",
    "state": "California",
    "stateFIPS": "06",
    "countyFIPS": "073",
    "countyName": "San Diego County",
    "population": 1404452,
    "lat": 32.7157,
    "lng": -117.1647,
    "slug": "san-diego",
    "tier": 1
  },
  {
    "name": "The Bronx",
    "stateCode": "NY",
    "state": "New York",
    "stateFIPS": "36",
    "countyFIPS": "005",
    "countyName": "Bronx County",
    "population": 1385108,
    "lat": 40.8499,
    "lng": -73.8664,
    "slug": "the-bronx",
    "tier": 1
  },
  {
    "name": "Dallas",
    "stateCode": "TX",
    "state": "Texas",
    "stateFIPS": "48",
    "countyFIPS": "113",
    "countyName": "Dallas County",
    "population": 1326087,
    "lat": 32.7831,
    "lng": -96.8067,
    "slug": "dallas-tx",
    "tier": 1
  },
  {
    "name": "Jacksonville",
    "stateCode": "FL",
    "state": "Florida",
    "stateFIPS": "12",
    "countyFIPS": "031",
    "countyName": "Duval County",
    "population": 1009833,
    "lat": 30.3322,
    "lng": -81.6556,
    "slug": "jacksonville-fl",
    "tier": 1
  },
  {
    "name": "Fort Worth",
    "stateCode": "TX",
    "state": "Texas",
    "stateFIPS": "48",
    "countyFIPS": "439",
    "countyName": "Tarrant County",
    "population": 1008106,
    "lat": 32.7254,
    "lng": -97.3208,
    "slug": "fort-worth",
    "tier": 1
  },
  {
    "name": "San Jose",
    "stateCode": "CA",
    "state": "California",
    "stateFIPS": "06",
    "countyFIPS": "085",
    "countyName": "Santa Clara County",
    "population": 997368,
    "lat": 37.3394,
    "lng": -121.895,
    "slug": "san-jose",
    "tier": 1
  },
  {
    "name": "Austin",
    "stateCode": "TX",
    "state": "Texas",
    "stateFIPS": "48",
    "countyFIPS": "453",
    "countyName": "Travis County",
    "population": 974447,
    "lat": 30.2672,
    "lng": -97.7431,
    "slug": "austin-tx",
    "tier": 1
  },
  {
    "name": "Columbus",
    "stateCode": "OH",
    "state": "Ohio",
    "stateFIPS": "39",
    "countyFIPS": "049",
    "countyName": "Franklin County",
    "population": 913175,
    "lat": 39.9612,
    "lng": -82.9988,
    "slug": "columbus-oh",
    "tier": 1
  },
  {
    "name": "Charlotte",
    "stateCode": "NC",
    "state": "North Carolina",
    "stateFIPS": "37",
    "countyFIPS": "119",
    "countyName": "Mecklenburg County",
    "population": 911311,
    "lat": 35.2271,
    "lng": -80.8431,
    "slug": "charlotte",
    "tier": 1
  },
  {
    "name": "Indianapolis",
    "stateCode": "IN",
    "state": "Indiana",
    "stateFIPS": "18",
    "countyFIPS": "097",
    "countyName": "Marion County",
    "population": 887642,
    "lat": 39.7684,
    "lng": -86.158,
    "slug": "indianapolis",
    "tier": 1
  },
  {
    "name": "San Francisco",
    "stateCode": "CA",
    "state": "California",
    "stateFIPS": "06",
    "countyFIPS": "075",
    "countyName": "San Francisco County",
    "population": 827526,
    "lat": 37.7749,
    "lng": -122.4194,
    "slug": "san-francisco",
    "tier": 1
  },
  {
    "name": "Seattle",
    "stateCode": "WA",
    "state": "Washington",
    "stateFIPS": "53",
    "countyFIPS": "033",
    "countyName": "King County",
    "population": 780995,
    "lat": 47.6062,
    "lng": -122.3321,
    "slug": "seattle",
    "tier": 1
  },
  {
    "name": "Denver",
    "stateCode": "CO",
    "state": "Colorado",
    "stateFIPS": "08",
    "countyFIPS": "031",
    "countyName": "Denver County",
    "population": 729019,
    "lat": 39.7392,
    "lng": -104.9847,
    "slug": "denver",
    "tier": 1
  },
  {
    "name": "Washington",
    "stateCode": "DC",
    "state": "District of Columbia",
    "stateFIPS": "11",
    "countyFIPS": "001",
    "countyName": "District of Columbia",
    "population": 689545,
    "lat": 38.8951,
    "lng": -77.0364,
    "slug": "washington-dc",
    "tier": 1
  },
  {
    "name": "Nashville",
    "stateCode": "TN",
    "state": "Tennessee",
    "stateFIPS": "47",
    "countyFIPS": "037",
    "countyName": "Davidson County",
    "population": 689447,
    "lat": 36.1659,
    "lng": -86.7844,
    "slug": "nashville",
    "tier": 1
  },
  {
    "name": "Oklahoma City",
    "stateCode": "OK",
    "state": "Oklahoma",
    "stateFIPS": "40",
    "countyFIPS": "109",
    "countyName": "Oklahoma County",
    "population": 681054,
    "lat": 35.4676,
    "lng": -97.5164,
    "slug": "oklahoma-city",
    "tier": 1
  },
  {
    "name": "El Paso",
    "stateCode": "TX",
    "state": "Texas",
    "stateFIPS": "48",
    "countyFIPS": "141",
    "countyName": "El Paso County",
    "population": 678815,
    "lat": 31.7587,
    "lng": -106.4869,
    "slug": "el-paso",
    "tier": 1
  },
  {
    "name": "Boston",
    "stateCode": "MA",
    "state": "Massachusetts",
    "stateFIPS": "25",
    "countyFIPS": "025",
    "countyName": "Suffolk County",
    "population": 653833,
    "lat": 42.3584,
    "lng": -71.0598,
    "slug": "boston",
    "tier": 1
  },
  {
    "name": "Portland",
    "stateCode": "OR",
    "state": "Oregon",
    "stateFIPS": "41",
    "countyFIPS": "051",
    "countyName": "Multnomah County",
    "population": 652503,
    "lat": 45.5234,
    "lng": -122.6762,
    "slug": "portland-or",
    "tier": 1
  },
  {
    "name": "Detroit",
    "stateCode": "MI",
    "state": "Michigan",
    "stateFIPS": "26",
    "countyFIPS": "163",
    "countyName": "Wayne County",
    "population": 645705,
    "lat": 42.3314,
    "lng": -83.0457,
    "slug": "detroit",
    "tier": 1
  },
  {
    "name": "Las Vegas",
    "stateCode": "NV",
    "state": "Nevada",
    "stateFIPS": "32",
    "countyFIPS": "003",
    "countyName": "Clark County",
    "population": 641903,
    "lat": 36.175,
    "lng": -115.1372,
    "slug": "las-vegas-nv",
    "tier": 1
  },
  {
    "name": "New South Memphis",
    "stateCode": "TN",
    "state": "Tennessee",
    "stateFIPS": "47",
    "countyFIPS": "157",
    "countyName": "Shelby County",
    "population": 641608,
    "lat": 35.0868,
    "lng": -90.0568,
    "slug": "new-south-memphis",
    "tier": 1
  },
  {
    "name": "Memphis",
    "stateCode": "TN",
    "state": "Tennessee",
    "stateFIPS": "47",
    "countyFIPS": "157",
    "countyName": "Shelby County",
    "population": 633104,
    "lat": 35.1495,
    "lng": -90.049,
    "slug": "memphis",
    "tier": 1
  },
  {
    "name": "Louisville",
    "stateCode": "KY",
    "state": "Kentucky",
    "stateFIPS": "21",
    "countyFIPS": "111",
    "countyName": "Jefferson County",
    "population": 624444,
    "lat": 38.2542,
    "lng": -85.7594,
    "slug": "louisville-ky",
    "tier": 1
  },
  {
    "name": "Baltimore",
    "stateCode": "MD",
    "state": "Maryland",
    "stateFIPS": "24",
    "countyFIPS": "510",
    "countyName": "Baltimore city",
    "population": 585708,
    "lat": 39.2904,
    "lng": -76.6122,
    "slug": "baltimore",
    "tier": 1
  },
  {
    "name": "South Boston",
    "stateCode": "MA",
    "state": "Massachusetts",
    "stateFIPS": "25",
    "countyFIPS": "025",
    "countyName": "Suffolk County",
    "population": 571281,
    "lat": 42.3334,
    "lng": -71.0495,
    "slug": "south-boston",
    "tier": 1
  },
  {
    "name": "Albuquerque",
    "stateCode": "NM",
    "state": "New Mexico",
    "stateFIPS": "35",
    "countyFIPS": "001",
    "countyName": "Bernalillo County",
    "population": 564559,
    "lat": 35.0845,
    "lng": -106.6511,
    "slug": "albuquerque",
    "tier": 1
  },
  {
    "name": "Milwaukee",
    "stateCode": "WI",
    "state": "Wisconsin",
    "stateFIPS": "55",
    "countyFIPS": "079",
    "countyName": "Milwaukee County",
    "population": 563531,
    "lat": 43.0389,
    "lng": -87.9065,
    "slug": "milwaukee",
    "tier": 1
  },
  {
    "name": "Tucson",
    "stateCode": "AZ",
    "state": "Arizona",
    "stateFIPS": "04",
    "countyFIPS": "019",
    "countyName": "Pima County",
    "population": 542629,
    "lat": 32.2217,
    "lng": -110.9265,
    "slug": "tucson",
    "tier": 1
  },
  {
    "name": "Fresno",
    "stateCode": "CA",
    "state": "California",
    "stateFIPS": "06",
    "countyFIPS": "019",
    "countyName": "Fresno County",
    "population": 542107,
    "lat": 36.7477,
    "lng": -119.7724,
    "slug": "fresno-ca",
    "tier": 1
  },
  {
    "name": "Sacramento",
    "stateCode": "CA",
    "state": "California",
    "stateFIPS": "06",
    "countyFIPS": "067",
    "countyName": "Sacramento County",
    "population": 524943,
    "lat": 38.5816,
    "lng": -121.4944,
    "slug": "sacramento",
    "tier": 1
  },
  {
    "name": "Atlanta",
    "stateCode": "GA",
    "state": "Georgia",
    "stateFIPS": "13",
    "countyFIPS": "121",
    "countyName": "Fulton County",
    "population": 510823,
    "lat": 33.749,
    "lng": -84.388,
    "slug": "atlanta",
    "tier": 1
  },
  {
    "name": "Miami",
    "stateCode": "FL",
    "state": "Florida",
    "stateFIPS": "12",
    "countyFIPS": "086",
    "countyName": "Miami-Dade County",
    "population": 487014,
    "lat": 25.7743,
    "lng": -80.1937,
    "slug": "miami-fl",
    "tier": 1
  },
  {
    "name": "Omaha",
    "stateCode": "NE",
    "state": "Nebraska",
    "stateFIPS": "31",
    "countyFIPS": "055",
    "countyName": "Douglas County",
    "population": 486051,
    "lat": 41.2563,
    "lng": -95.9404,
    "slug": "omaha",
    "tier": 1
  },
  {
    "name": "Raleigh",
    "stateCode": "NC",
    "state": "North Carolina",
    "stateFIPS": "37",
    "countyFIPS": "183",
    "countyName": "Wake County",
    "population": 482295,
    "lat": 35.7721,
    "lng": -78.6386,
    "slug": "raleigh",
    "tier": 1
  },
  {
    "name": "Kansas City",
    "stateCode": "MO",
    "state": "Missouri",
    "stateFIPS": "29",
    "countyFIPS": "095",
    "countyName": "Jackson County",
    "population": 475378,
    "lat": 39.0997,
    "lng": -94.5786,
    "slug": "kansas-city-mo",
    "tier": 1
  },
  {
    "name": "Long Beach",
    "stateCode": "CA",
    "state": "California",
    "stateFIPS": "06",
    "countyFIPS": "037",
    "countyName": "Los Angeles County",
    "population": 474140,
    "lat": 33.767,
    "lng": -118.1892,
    "slug": "long-beach-ca",
    "tier": 1
  },
  {
    "name": "Mesa",
    "stateCode": "AZ",
    "state": "Arizona",
    "stateFIPS": "04",
    "countyFIPS": "013",
    "countyName": "Maricopa County",
    "population": 471825,
    "lat": 33.4223,
    "lng": -111.8226,
    "slug": "mesa",
    "tier": 1
  },
  {
    "name": "Colorado Springs",
    "stateCode": "CO",
    "state": "Colorado",
    "stateFIPS": "08",
    "countyFIPS": "041",
    "countyName": "El Paso County",
    "population": 456568,
    "lat": 38.8339,
    "lng": -104.8214,
    "slug": "colorado-springs",
    "tier": 1
  },
  {
    "name": "Virginia Beach",
    "stateCode": "VA",
    "state": "Virginia",
    "stateFIPS": "51",
    "countyFIPS": "810",
    "countyName": "Virginia Beach city",
    "population": 454808,
    "lat": 36.8529,
    "lng": -75.978,
    "slug": "virginia-beach",
    "tier": 1
  },
  {
    "name": "Oakland",
    "stateCode": "CA",
    "state": "California",
    "stateFIPS": "06",
    "countyFIPS": "001",
    "countyName": "Alameda County",
    "population": 419267,
    "lat": 37.8044,
    "lng": -122.2708,
    "slug": "oakland-ca",
    "tier": 1
  },
  {
    "name": "Tampa",
    "stateCode": "FL",
    "state": "Florida",
    "stateFIPS": "12",
    "countyFIPS": "057",
    "countyName": "Hillsborough County",
    "population": 414547,
    "lat": 27.9475,
    "lng": -82.4584,
    "slug": "tampa",
    "tier": 1
  },
  {
    "name": "Tulsa",
    "stateCode": "OK",
    "state": "Oklahoma",
    "stateFIPS": "40",
    "countyFIPS": "143",
    "countyName": "Tulsa County",
    "population": 413066,
    "lat": 36.154,
    "lng": -95.9928,
    "slug": "tulsa",
    "tier": 1
  },
  {
    "name": "Minneapolis",
    "stateCode": "MN",
    "state": "Minnesota",
    "stateFIPS": "27",
    "countyFIPS": "053",
    "countyName": "Hennepin County",
    "population": 410939,
    "lat": 44.98,
    "lng": -93.2638,
    "slug": "minneapolis",
    "tier": 1
  },
  {
    "name": "Wichita",
    "stateCode": "KS",
    "state": "Kansas",
    "stateFIPS": "20",
    "countyFIPS": "173",
    "countyName": "Sedgwick County",
    "population": 396119,
    "lat": 37.6922,
    "lng": -97.3375,
    "slug": "wichita",
    "tier": 1
  },
  {
    "name": "Arlington",
    "stateCode": "TX",
    "state": "Texas",
    "stateFIPS": "48",
    "countyFIPS": "439",
    "countyName": "Tarrant County",
    "population": 388125,
    "lat": 32.7357,
    "lng": -97.1081,
    "slug": "arlington-tx",
    "tier": 1
  },
  {
    "name": "Bakersfield",
    "stateCode": "CA",
    "state": "California",
    "stateFIPS": "06",
    "countyFIPS": "029",
    "countyName": "Kern County",
    "population": 373640,
    "lat": 35.3733,
    "lng": -119.0187,
    "slug": "bakersfield",
    "tier": 1
  },
  {
    "name": "Cleveland",
    "stateCode": "OH",
    "state": "Ohio",
    "stateFIPS": "39",
    "countyFIPS": "035",
    "countyName": "Cuyahoga County",
    "population": 365379,
    "lat": 41.4995,
    "lng": -81.6954,
    "slug": "cleveland-oh",
    "tier": 1
  },
  {
    "name": "New Orleans",
    "stateCode": "LA",
    "state": "Louisiana",
    "stateFIPS": "22",
    "countyFIPS": "071",
    "countyName": "Orleans Parish",
    "population": 362701,
    "lat": 29.9547,
    "lng": -90.0751,
    "slug": "new-orleans",
    "tier": 1
  },
  {
    "name": "Aurora",
    "stateCode": "CO",
    "state": "Colorado",
    "stateFIPS": "08",
    "countyFIPS": "001",
    "countyName": "Adams County",
    "population": 359407,
    "lat": 39.7294,
    "lng": -104.8319,
    "slug": "aurora-co",
    "tier": 1
  },
  {
    "name": "Honolulu",
    "stateCode": "HI",
    "state": "Hawaii",
    "stateFIPS": "15",
    "countyFIPS": "003",
    "countyName": "Honolulu County",
    "population": 350964,
    "lat": 21.3069,
    "lng": -157.8583,
    "slug": "honolulu",
    "tier": 1
  },
  {
    "name": "Anaheim",
    "stateCode": "CA",
    "state": "California",
    "stateFIPS": "06",
    "countyFIPS": "059",
    "countyName": "Orange County",
    "population": 350742,
    "lat": 33.8353,
    "lng": -117.9145,
    "slug": "anaheim",
    "tier": 1
  },
  {
    "name": "West Raleigh",
    "stateCode": "NC",
    "state": "North Carolina",
    "stateFIPS": "37",
    "countyFIPS": "183",
    "countyName": "Wake County",
    "population": 338759,
    "lat": 35.7868,
    "lng": -78.6639,
    "slug": "west-raleigh",
    "tier": 1
  },
  {
    "name": "Orlando",
    "stateCode": "FL",
    "state": "Florida",
    "stateFIPS": "12",
    "countyFIPS": "095",
    "countyName": "Orange County",
    "population": 334854,
    "lat": 28.5383,
    "lng": -81.3792,
    "slug": "orlando",
    "tier": 1
  },
  {
    "name": "Lexington",
    "stateCode": "KY",
    "state": "Kentucky",
    "stateFIPS": "21",
    "countyFIPS": "067",
    "countyName": "Fayette County",
    "population": 320347,
    "lat": 37.9887,
    "lng": -84.4777,
    "slug": "lexington-ky",
    "tier": 1
  },
  {
    "name": "Riverside",
    "stateCode": "CA",
    "state": "California",
    "stateFIPS": "06",
    "countyFIPS": "065",
    "countyName": "Riverside County",
    "population": 317261,
    "lat": 33.9534,
    "lng": -117.3962,
    "slug": "riverside-ca",
    "tier": 1
  },
  {
    "name": "Corpus Christi",
    "stateCode": "TX",
    "state": "Texas",
    "stateFIPS": "48",
    "countyFIPS": "355",
    "countyName": "Nueces County",
    "population": 316239,
    "lat": 27.8006,
    "lng": -97.3964,
    "slug": "corpus-christi",
    "tier": 1
  },
  {
    "name": "Lexington-Fayette",
    "stateCode": "KY",
    "state": "Kentucky",
    "stateFIPS": "21",
    "countyFIPS": "067",
    "countyName": "Fayette County",
    "population": 314488,
    "lat": 38.0498,
    "lng": -84.4585,
    "slug": "lexington-fayette",
    "tier": 1
  },
  {
    "name": "Cincinnati",
    "stateCode": "OH",
    "state": "Ohio",
    "stateFIPS": "39",
    "countyFIPS": "061",
    "countyName": "Hamilton County",
    "population": 311097,
    "lat": 39.1271,
    "lng": -84.5144,
    "slug": "cincinnati",
    "tier": 1
  },
  {
    "name": "Santa Ana",
    "stateCode": "CA",
    "state": "California",
    "stateFIPS": "06",
    "countyFIPS": "059",
    "countyName": "Orange County",
    "population": 310227,
    "lat": 33.7456,
    "lng": -117.8678,
    "slug": "santa-ana",
    "tier": 1
  },
  {
    "name": "Stockton",
    "stateCode": "CA",
    "state": "California",
    "stateFIPS": "06",
    "countyFIPS": "077",
    "countyName": "San Joaquin County",
    "population": 305658,
    "lat": 37.9577,
    "lng": -121.2908,
    "slug": "stockton",
    "tier": 1
  },
  {
    "name": "Pittsburgh",
    "stateCode": "PA",
    "state": "Pennsylvania",
    "stateFIPS": "42",
    "countyFIPS": "003",
    "countyName": "Allegheny County",
    "population": 304391,
    "lat": 40.4406,
    "lng": -79.9959,
    "slug": "pittsburgh",
    "tier": 1
  },
  {
    "name": "Saint Paul",
    "stateCode": "MN",
    "state": "Minnesota",
    "stateFIPS": "27",
    "countyFIPS": "123",
    "countyName": "Ramsey County",
    "population": 303176,
    "lat": 44.9444,
    "lng": -93.0933,
    "slug": "saint-paul",
    "tier": 1
  },
  {
    "name": "Lincoln",
    "stateCode": "NE",
    "state": "Nebraska",
    "stateFIPS": "31",
    "countyFIPS": "109",
    "countyName": "Lancaster County",
    "population": 294757,
    "lat": 40.8,
    "lng": -96.667,
    "slug": "lincoln-ne",
    "tier": 1
  },
  {
    "name": "Anchorage",
    "stateCode": "AK",
    "state": "Alaska",
    "stateFIPS": "02",
    "countyFIPS": "020",
    "countyName": "Anchorage Municipality",
    "population": 289600,
    "lat": 61.2181,
    "lng": -149.9003,
    "slug": "anchorage",
    "tier": 1
  },
  {
    "name": "Meads",
    "stateCode": "KY",
    "state": "Kentucky",
    "stateFIPS": "21",
    "countyFIPS": "019",
    "countyName": "Boyd County",
    "population": 288649,
    "lat": 38.4126,
    "lng": -82.709,
    "slug": "meads",
    "tier": 1
  },
  {
    "name": "Henderson",
    "stateCode": "NV",
    "state": "Nevada",
    "stateFIPS": "32",
    "countyFIPS": "003",
    "countyName": "Clark County",
    "population": 285667,
    "lat": 36.0397,
    "lng": -114.9819,
    "slug": "henderson-nv",
    "tier": 1
  },
  {
    "name": "Greensboro",
    "stateCode": "NC",
    "state": "North Carolina",
    "stateFIPS": "37",
    "countyFIPS": "081",
    "countyName": "Guilford County",
    "population": 285342,
    "lat": 36.0726,
    "lng": -79.792,
    "slug": "greensboro",
    "tier": 1
  },
  {
    "name": "Plano",
    "stateCode": "TX",
    "state": "Texas",
    "stateFIPS": "48",
    "countyFIPS": "085",
    "countyName": "Collin County",
    "population": 283558,
    "lat": 33.0198,
    "lng": -96.6989,
    "slug": "plano-tx",
    "tier": 1
  },
  {
    "name": "Newark",
    "stateCode": "NJ",
    "state": "New Jersey",
    "stateFIPS": "34",
    "countyFIPS": "013",
    "countyName": "Essex County",
    "population": 281944,
    "lat": 40.7357,
    "lng": -74.1724,
    "slug": "newark-nj",
    "tier": 1
  },
  {
    "name": "Madison",
    "stateCode": "WI",
    "state": "Wisconsin",
    "stateFIPS": "55",
    "countyFIPS": "025",
    "countyName": "Dane County",
    "population": 280305,
    "lat": 43.0731,
    "lng": -89.4012,
    "slug": "madison-wi",
    "tier": 1
  },
  {
    "name": "St. Louis",
    "stateCode": "MO",
    "state": "Missouri",
    "stateFIPS": "29",
    "countyFIPS": "510",
    "countyName": "St. Louis city",
    "population": 279695,
    "lat": 38.6273,
    "lng": -90.1979,
    "slug": "st-louis",
    "tier": 1
  },
  {
    "name": "Chula Vista",
    "stateCode": "CA",
    "state": "California",
    "stateFIPS": "06",
    "countyFIPS": "073",
    "countyName": "San Diego County",
    "population": 265757,
    "lat": 32.6401,
    "lng": -117.0842,
    "slug": "chula-vista",
    "tier": 1
  },
  {
    "name": "Toledo",
    "stateCode": "OH",
    "state": "Ohio",
    "stateFIPS": "39",
    "countyFIPS": "095",
    "countyName": "Lucas County",
    "population": 265638,
    "lat": 41.6639,
    "lng": -83.5552,
    "slug": "toledo",
    "tier": 1
  },
  {
    "name": "Jersey City",
    "stateCode": "NJ",
    "state": "New Jersey",
    "stateFIPS": "34",
    "countyFIPS": "017",
    "countyName": "Hudson County",
    "population": 264290,
    "lat": 40.7282,
    "lng": -74.0776,
    "slug": "jersey-city",
    "tier": 1
  },
  {
    "name": "Reno",
    "stateCode": "NV",
    "state": "Nevada",
    "stateFIPS": "32",
    "countyFIPS": "031",
    "countyName": "Washoe County",
    "population": 264165,
    "lat": 39.5296,
    "lng": -119.8138,
    "slug": "reno",
    "tier": 1
  },
  {
    "name": "Chandler",
    "stateCode": "AZ",
    "state": "Arizona",
    "stateFIPS": "04",
    "countyFIPS": "013",
    "countyName": "Maricopa County",
    "population": 260828,
    "lat": 33.3062,
    "lng": -111.8412,
    "slug": "chandler",
    "tier": 1
  },
  {
    "name": "Fort Wayne",
    "stateCode": "IN",
    "state": "Indiana",
    "stateFIPS": "18",
    "countyFIPS": "003",
    "countyName": "Allen County",
    "population": 260326,
    "lat": 41.1306,
    "lng": -85.1289,
    "slug": "fort-wayne",
    "tier": 1
  },
  {
    "name": "Buffalo",
    "stateCode": "NY",
    "state": "New York",
    "stateFIPS": "36",
    "countyFIPS": "029",
    "countyName": "Erie County",
    "population": 258071,
    "lat": 42.8865,
    "lng": -78.8784,
    "slug": "buffalo-ny",
    "tier": 1
  },
  {
    "name": "Durham",
    "stateCode": "NC",
    "state": "North Carolina",
    "stateFIPS": "37",
    "countyFIPS": "063",
    "countyName": "Durham County",
    "population": 257636,
    "lat": 35.994,
    "lng": -78.8986,
    "slug": "durham-nc",
    "tier": 1
  },
  {
    "name": "St. Petersburg",
    "stateCode": "FL",
    "state": "Florida",
    "stateFIPS": "12",
    "countyFIPS": "103",
    "countyName": "Pinellas County",
    "population": 257083,
    "lat": 27.7709,
    "lng": -82.6793,
    "slug": "st-petersburg",
    "tier": 1
  },
  {
    "name": "Irvine",
    "stateCode": "CA",
    "state": "California",
    "stateFIPS": "06",
    "countyFIPS": "059",
    "countyName": "Orange County",
    "population": 256927,
    "lat": 33.6695,
    "lng": -117.8231,
    "slug": "irvine",
    "tier": 1
  },
  {
    "name": "Laredo",
    "stateCode": "TX",
    "state": "Texas",
    "stateFIPS": "48",
    "countyFIPS": "479",
    "countyName": "Webb County",
    "population": 256153,
    "lat": 27.5064,
    "lng": -99.5075,
    "slug": "laredo",
    "tier": 1
  },
  {
    "name": "Lubbock",
    "stateCode": "TX",
    "state": "Texas",
    "stateFIPS": "48",
    "countyFIPS": "303",
    "countyName": "Lubbock County",
    "population": 249042,
    "lat": 33.5779,
    "lng": -101.8552,
    "slug": "lubbock",
    "tier": 1
  },
  {
    "name": "Gilbert",
    "stateCode": "AZ",
    "state": "Arizona",
    "stateFIPS": "04",
    "countyFIPS": "013",
    "countyName": "Maricopa County",
    "population": 247542,
    "lat": 33.3528,
    "lng": -111.789,
    "slug": "gilbert",
    "tier": 1
  },
  {
    "name": "Tri-Cities",
    "stateCode": "WA",
    "state": "Washington",
    "stateFIPS": "53",
    "countyFIPS": "021",
    "countyName": "Franklin County",
    "population": 244036,
    "lat": 46.2454,
    "lng": -119.1962,
    "slug": "tri-cities",
    "tier": 1
  },
  {
    "name": "Winston-Salem",
    "stateCode": "NC",
    "state": "North Carolina",
    "stateFIPS": "37",
    "countyFIPS": "067",
    "countyName": "Forsyth County",
    "population": 241218,
    "lat": 36.0999,
    "lng": -80.2442,
    "slug": "winston-salem",
    "tier": 1
  },
  {
    "name": "Glendale",
    "stateCode": "AZ",
    "state": "Arizona",
    "stateFIPS": "04",
    "countyFIPS": "013",
    "countyName": "Maricopa County",
    "population": 240126,
    "lat": 33.5386,
    "lng": -112.186,
    "slug": "glendale-az",
    "tier": 1
  },
  {
    "name": "Norfolk",
    "stateCode": "VA",
    "state": "Virginia",
    "stateFIPS": "51",
    "countyFIPS": "710",
    "countyName": "Norfolk city",
    "population": 238005,
    "lat": 36.8468,
    "lng": -76.2852,
    "slug": "norfolk-va",
    "tier": 1
  },
  {
    "name": "Hialeah",
    "stateCode": "FL",
    "state": "Florida",
    "stateFIPS": "12",
    "countyFIPS": "086",
    "countyName": "Miami-Dade County",
    "population": 237069,
    "lat": 25.8576,
    "lng": -80.2781,
    "slug": "hialeah",
    "tier": 1
  },
  {
    "name": "Garland",
    "stateCode": "TX",
    "state": "Texas",
    "stateFIPS": "48",
    "countyFIPS": "113",
    "countyName": "Dallas County",
    "population": 236897,
    "lat": 32.9126,
    "lng": -96.6389,
    "slug": "garland",
    "tier": 1
  },
  {
    "name": "Scottsdale",
    "stateCode": "AZ",
    "state": "Arizona",
    "stateFIPS": "04",
    "countyFIPS": "013",
    "countyName": "Maricopa County",
    "population": 236839,
    "lat": 33.5092,
    "lng": -111.899,
    "slug": "scottsdale",
    "tier": 1
  },
  {
    "name": "Irving",
    "stateCode": "TX",
    "state": "Texas",
    "stateFIPS": "48",
    "countyFIPS": "113",
    "countyName": "Dallas County",
    "population": 236607,
    "lat": 32.814,
    "lng": -96.9489,
    "slug": "irving",
    "tier": 1
  },
  {
    "name": "Boise",
    "stateCode": "ID",
    "state": "Idaho",
    "stateFIPS": "16",
    "countyFIPS": "001",
    "countyName": "Ada County",
    "population": 235684,
    "lat": 43.6135,
    "lng": -116.2034,
    "slug": "boise",
    "tier": 1
  },
  {
    "name": "Chesapeake",
    "stateCode": "VA",
    "state": "Virginia",
    "stateFIPS": "51",
    "countyFIPS": "550",
    "countyName": "Chesapeake city",
    "population": 235429,
    "lat": 36.819,
    "lng": -76.2749,
    "slug": "chesapeake",
    "tier": 1
  },
  {
    "name": "North Las Vegas",
    "stateCode": "NV",
    "state": "Nevada",
    "stateFIPS": "32",
    "countyFIPS": "003",
    "countyName": "Clark County",
    "population": 234807,
    "lat": 36.1989,
    "lng": -115.1175,
    "slug": "north-las-vegas",
    "tier": 1
  },
  {
    "name": "Fremont",
    "stateCode": "CA",
    "state": "California",
    "stateFIPS": "06",
    "countyFIPS": "001",
    "countyName": "Alameda County",
    "population": 232206,
    "lat": 37.5483,
    "lng": -121.9886,
    "slug": "fremont-ca",
    "tier": 1
  },
  {
    "name": "Spokane",
    "stateCode": "WA",
    "state": "Washington",
    "stateFIPS": "53",
    "countyFIPS": "063",
    "countyName": "Spokane County",
    "population": 229447,
    "lat": 47.6597,
    "lng": -117.4291,
    "slug": "spokane",
    "tier": 1
  },
  {
    "name": "Baton Rouge",
    "stateCode": "LA",
    "state": "Louisiana",
    "stateFIPS": "22",
    "countyFIPS": "033",
    "countyName": "East Baton Rouge Parish",
    "population": 227470,
    "lat": 30.4433,
    "lng": -91.1875,
    "slug": "baton-rouge",
    "tier": 1
  },
  {
    "name": "Upper West Side",
    "stateCode": "NY",
    "state": "New York",
    "stateFIPS": "36",
    "countyFIPS": "061",
    "countyName": "New York County",
    "population": 226989,
    "lat": 40.7871,
    "lng": -73.9754,
    "slug": "upper-west-side",
    "tier": 1
  },
  {
    "name": "Richmond",
    "stateCode": "VA",
    "state": "Virginia",
    "stateFIPS": "51",
    "countyFIPS": "760",
    "countyName": "Richmond city",
    "population": 226610,
    "lat": 37.5538,
    "lng": -77.4603,
    "slug": "richmond-va",
    "tier": 1
  },
  {
    "name": "Paradise",
    "stateCode": "NV",
    "state": "Nevada",
    "stateFIPS": "32",
    "countyFIPS": "003",
    "countyName": "Clark County",
    "population": 223167,
    "lat": 36.0972,
    "lng": -115.1467,
    "slug": "paradise-nv",
    "tier": 1
  },
  {
    "name": "Tacoma",
    "stateCode": "WA",
    "state": "Washington",
    "stateFIPS": "53",
    "countyFIPS": "053",
    "countyName": "Pierce County",
    "population": 222906,
    "lat": 47.2529,
    "lng": -122.4443,
    "slug": "tacoma",
    "tier": 1
  },
  {
    "name": "Jamaica",
    "stateCode": "NY",
    "state": "New York",
    "stateFIPS": "36",
    "countyFIPS": "081",
    "countyName": "Queens County",
    "population": 216866,
    "lat": 40.6915,
    "lng": -73.8057,
    "slug": "jamaica",
    "tier": 1
  },
  {
    "name": "San Bernardino",
    "stateCode": "CA",
    "state": "California",
    "stateFIPS": "06",
    "countyFIPS": "071",
    "countyName": "San Bernardino County",
    "population": 216108,
    "lat": 34.1083,
    "lng": -117.2898,
    "slug": "san-bernardino",
    "tier": 1
  },
  {
    "name": "Salt Lake City",
    "stateCode": "UT",
    "state": "Utah",
    "stateFIPS": "49",
    "countyFIPS": "035",
    "countyName": "Salt Lake County",
    "population": 215548,
    "lat": 40.7608,
    "lng": -111.891,
    "slug": "salt-lake-city",
    "tier": 1
  },
  {
    "name": "Huntsville",
    "stateCode": "AL",
    "state": "Alabama",
    "stateFIPS": "01",
    "countyFIPS": "089",
    "countyName": "Madison County",
    "population": 215006,
    "lat": 34.7304,
    "lng": -86.5859,
    "slug": "huntsville-al",
    "tier": 1
  },
  {
    "name": "Des Moines",
    "stateCode": "IA",
    "state": "Iowa",
    "stateFIPS": "19",
    "countyFIPS": "153",
    "countyName": "Polk County",
    "population": 214133,
    "lat": 41.6005,
    "lng": -93.6091,
    "slug": "des-moines-ia",
    "tier": 1
  },
  {
    "name": "Fontana",
    "stateCode": "CA",
    "state": "California",
    "stateFIPS": "06",
    "countyFIPS": "071",
    "countyName": "San Bernardino County",
    "population": 212704,
    "lat": 34.0922,
    "lng": -117.435,
    "slug": "fontana",
    "tier": 1
  },
  {
    "name": "Modesto",
    "stateCode": "CA",
    "state": "California",
    "stateFIPS": "06",
    "countyFIPS": "099",
    "countyName": "Stanislaus County",
    "population": 211266,
    "lat": 37.6391,
    "lng": -120.9969,
    "slug": "modesto",
    "tier": 1
  },
  {
    "name": "Rochester",
    "stateCode": "NY",
    "state": "New York",
    "stateFIPS": "36",
    "countyFIPS": "055",
    "countyName": "Monroe County",
    "population": 209802,
    "lat": 43.1548,
    "lng": -77.6156,
    "slug": "rochester-ny",
    "tier": 1
  },
  {
    "name": "Maryvale",
    "stateCode": "AZ",
    "state": "Arizona",
    "stateFIPS": "04",
    "countyFIPS": "013",
    "countyName": "Maricopa County",
    "population": 208189,
    "lat": 33.502,
    "lng": -112.1776,
    "slug": "maryvale",
    "tier": 1
  },
  {
    "name": "Arlington",
    "stateCode": "VA",
    "state": "Virginia",
    "stateFIPS": "51",
    "countyFIPS": "013",
    "countyName": "Arlington County",
    "population": 207627,
    "lat": 38.881,
    "lng": -77.1043,
    "slug": "arlington-va",
    "tier": 1
  },
  {
    "name": "Oxnard",
    "stateCode": "CA",
    "state": "California",
    "stateFIPS": "06",
    "countyFIPS": "111",
    "countyName": "Ventura County",
    "population": 207254,
    "lat": 34.1975,
    "lng": -119.177,
    "slug": "oxnard",
    "tier": 1
  },
  {
    "name": "Columbus",
    "stateCode": "GA",
    "state": "Georgia",
    "stateFIPS": "13",
    "countyFIPS": "215",
    "countyName": "Muscogee County",
    "population": 206922,
    "lat": 32.461,
    "lng": -84.9877,
    "slug": "columbus-ga",
    "tier": 1
  },
  {
    "name": "Worcester",
    "stateCode": "MA",
    "state": "Massachusetts",
    "stateFIPS": "25",
    "countyFIPS": "027",
    "countyName": "Worcester County",
    "population": 206518,
    "lat": 42.2626,
    "lng": -71.8023,
    "slug": "worcester",
    "tier": 1
  },
  {
    "name": "Moreno Valley",
    "stateCode": "CA",
    "state": "California",
    "stateFIPS": "06",
    "countyFIPS": "065",
    "countyName": "Riverside County",
    "population": 204198,
    "lat": 33.9375,
    "lng": -117.2306,
    "slug": "moreno-valley",
    "tier": 1
  },
  {
    "name": "Little Rock",
    "stateCode": "AR",
    "state": "Arkansas",
    "stateFIPS": "05",
    "countyFIPS": "119",
    "countyName": "Pulaski County",
    "population": 202591,
    "lat": 34.7465,
    "lng": -92.2896,
    "slug": "little-rock",
    "tier": 1
  },
  {
    "name": "Fayetteville",
    "stateCode": "NC",
    "state": "North Carolina",
    "stateFIPS": "37",
    "countyFIPS": "051",
    "countyName": "Cumberland County",
    "population": 201963,
    "lat": 35.0527,
    "lng": -78.8784,
    "slug": "fayetteville-nc",
    "tier": 1
  },
  {
    "name": "Huntington Beach",
    "stateCode": "CA",
    "state": "California",
    "stateFIPS": "06",
    "countyFIPS": "059",
    "countyName": "Orange County",
    "population": 201899,
    "lat": 33.6603,
    "lng": -117.9992,
    "slug": "huntington-beach",
    "tier": 1
  },
  {
    "name": "Tallahassee",
    "stateCode": "FL",
    "state": "Florida",
    "stateFIPS": "12",
    "countyFIPS": "073",
    "countyName": "Leon County",
    "population": 201731,
    "lat": 30.4383,
    "lng": -84.2807,
    "slug": "tallahassee",
    "tier": 1
  },
  {
    "name": "Yonkers",
    "stateCode": "NY",
    "state": "New York",
    "stateFIPS": "36",
    "countyFIPS": "119",
    "countyName": "Westchester County",
    "population": 201116,
    "lat": 40.9304,
    "lng": -73.8979,
    "slug": "yonkers",
    "tier": 1
  },
  {
    "name": "Glendale",
    "stateCode": "CA",
    "state": "California",
    "stateFIPS": "06",
    "countyFIPS": "037",
    "countyName": "Los Angeles County",
    "population": 201020,
    "lat": 34.1425,
    "lng": -118.2551,
    "slug": "glendale-ca",
    "tier": 1
  },
  {
    "name": "Cypress",
    "stateCode": "TX",
    "state": "Texas",
    "stateFIPS": "48",
    "countyFIPS": "201",
    "countyName": "Harris County",
    "population": 200839,
    "lat": 29.9691,
    "lng": -95.6972,
    "slug": "cypress-tx",
    "tier": 1
  },
  {
    "name": "Aurora",
    "stateCode": "IL",
    "state": "Illinois",
    "stateFIPS": "17",
    "countyFIPS": "089",
    "countyName": "Kane County",
    "population": 200661,
    "lat": 41.7606,
    "lng": -88.3201,
    "slug": "aurora-il",
    "tier": 1
  },
  {
    "name": "Amarillo",
    "stateCode": "TX",
    "state": "Texas",
    "stateFIPS": "48",
    "countyFIPS": "375",
    "countyName": "Potter County",
    "population": 198645,
    "lat": 35.222,
    "lng": -101.8313,
    "slug": "amarillo",
    "tier": 1
  },
  {
    "name": "Akron",
    "stateCode": "OH",
    "state": "Ohio",
    "stateFIPS": "39",
    "countyFIPS": "153",
    "countyName": "Summit County",
    "population": 197542,
    "lat": 41.0814,
    "lng": -81.519,
    "slug": "akron",
    "tier": 1
  },
  {
    "name": "Vancouver",
    "stateCode": "WA",
    "state": "Washington",
    "stateFIPS": "53",
    "countyFIPS": "011",
    "countyName": "Clark County",
    "population": 196442,
    "lat": 45.6387,
    "lng": -122.6615,
    "slug": "vancouver",
    "tier": 1
  },
  {
    "name": "Birmingham",
    "stateCode": "AL",
    "state": "Alabama",
    "stateFIPS": "01",
    "countyFIPS": "073",
    "countyName": "Jefferson County",
    "population": 196357,
    "lat": 33.5207,
    "lng": -86.8025,
    "slug": "birmingham-al",
    "tier": 1
  },
  {
    "name": "Montgomery",
    "stateCode": "AL",
    "state": "Alabama",
    "stateFIPS": "01",
    "countyFIPS": "101",
    "countyName": "Montgomery County",
    "population": 195287,
    "lat": 32.3668,
    "lng": -86.3,
    "slug": "montgomery-al",
    "tier": 1
  },
  {
    "name": "Grand Rapids",
    "stateCode": "MI",
    "state": "Michigan",
    "stateFIPS": "26",
    "countyFIPS": "081",
    "countyName": "Kent County",
    "population": 195097,
    "lat": 42.9634,
    "lng": -85.6681,
    "slug": "grand-rapids-mi",
    "tier": 1
  },
  {
    "name": "Peoria",
    "stateCode": "AZ",
    "state": "Arizona",
    "stateFIPS": "04",
    "countyFIPS": "013",
    "countyName": "Maricopa County",
    "population": 190985,
    "lat": 33.5806,
    "lng": -112.2374,
    "slug": "peoria-az",
    "tier": 1
  },
  {
    "name": "Providence",
    "stateCode": "RI",
    "state": "Rhode Island",
    "stateFIPS": "44",
    "countyFIPS": "007",
    "countyName": "Providence County",
    "population": 190934,
    "lat": 41.824,
    "lng": -71.4128,
    "slug": "providence",
    "tier": 1
  },
  {
    "name": "Knoxville",
    "stateCode": "TN",
    "state": "Tennessee",
    "stateFIPS": "47",
    "countyFIPS": "093",
    "countyName": "Knox County",
    "population": 190740,
    "lat": 35.9606,
    "lng": -83.9207,
    "slug": "knoxville",
    "tier": 1
  },
  {
    "name": "Sunrise Manor",
    "stateCode": "NV",
    "state": "Nevada",
    "stateFIPS": "32",
    "countyFIPS": "003",
    "countyName": "Clark County",
    "population": 189372,
    "lat": 36.2111,
    "lng": -115.0731,
    "slug": "sunrise-manor",
    "tier": 1
  },
  {
    "name": "Grand Prairie",
    "stateCode": "TX",
    "state": "Texas",
    "stateFIPS": "48",
    "countyFIPS": "113",
    "countyName": "Dallas County",
    "population": 187809,
    "lat": 32.746,
    "lng": -96.9978,
    "slug": "grand-prairie",
    "tier": 1
  },
  {
    "name": "Shreveport",
    "stateCode": "LA",
    "state": "Louisiana",
    "stateFIPS": "22",
    "countyFIPS": "017",
    "countyName": "Caddo Parish",
    "population": 187593,
    "lat": 32.5251,
    "lng": -93.7502,
    "slug": "shreveport",
    "tier": 1
  },
  {
    "name": "Brownsville",
    "stateCode": "TX",
    "state": "Texas",
    "stateFIPS": "48",
    "countyFIPS": "061",
    "countyName": "Cameron County",
    "population": 186738,
    "lat": 25.9018,
    "lng": -97.4975,
    "slug": "brownsville-tx",
    "tier": 1
  },
  {
    "name": "Overland Park",
    "stateCode": "KS",
    "state": "Kansas",
    "stateFIPS": "20",
    "countyFIPS": "091",
    "countyName": "Johnson County",
    "population": 186515,
    "lat": 38.9822,
    "lng": -94.6708,
    "slug": "overland-park",
    "tier": 1
  },
  {
    "name": "Newport News",
    "stateCode": "VA",
    "state": "Virginia",
    "stateFIPS": "51",
    "countyFIPS": "700",
    "countyName": "Newport News city",
    "population": 186247,
    "lat": 36.9804,
    "lng": -76.4297,
    "slug": "newport-news",
    "tier": 1
  },
  {
    "name": "Mobile",
    "stateCode": "AL",
    "state": "Alabama",
    "stateFIPS": "01",
    "countyFIPS": "097",
    "countyName": "Mobile County",
    "population": 183289,
    "lat": 30.6944,
    "lng": -88.043,
    "slug": "mobile",
    "tier": 1
  },
  {
    "name": "Fort Lauderdale",
    "stateCode": "FL",
    "state": "Florida",
    "stateFIPS": "12",
    "countyFIPS": "011",
    "countyName": "Broward County",
    "population": 183146,
    "lat": 26.1223,
    "lng": -80.1434,
    "slug": "fort-lauderdale",
    "tier": 1
  },
  {
    "name": "Santa Clarita",
    "stateCode": "CA",
    "state": "California",
    "stateFIPS": "06",
    "countyFIPS": "037",
    "countyName": "Los Angeles County",
    "population": 182371,
    "lat": 34.3917,
    "lng": -118.5426,
    "slug": "santa-clarita",
    "tier": 1
  },
  {
    "name": "Chattanooga",
    "stateCode": "TN",
    "state": "Tennessee",
    "stateFIPS": "47",
    "countyFIPS": "065",
    "countyName": "Hamilton County",
    "population": 181099,
    "lat": 35.0456,
    "lng": -85.3097,
    "slug": "chattanooga",
    "tier": 1
  },
  {
    "name": "East Flatbush",
    "stateCode": "NY",
    "state": "New York",
    "stateFIPS": "36",
    "countyFIPS": "047",
    "countyName": "Kings County",
    "population": 178464,
    "lat": 40.6537,
    "lng": -73.9304,
    "slug": "east-flatbush",
    "tier": 1
  },
  {
    "name": "Spring Valley",
    "stateCode": "NV",
    "state": "Nevada",
    "stateFIPS": "32",
    "countyFIPS": "003",
    "countyName": "Clark County",
    "population": 178395,
    "lat": 36.108,
    "lng": -115.245,
    "slug": "spring-valley-nv",
    "tier": 1
  },
  {
    "name": "Santa Rosa",
    "stateCode": "CA",
    "state": "California",
    "stateFIPS": "06",
    "countyFIPS": "097",
    "countyName": "Sonoma County",
    "population": 178127,
    "lat": 38.4405,
    "lng": -122.7144,
    "slug": "santa-rosa",
    "tier": 1
  },
  {
    "name": "Eugene",
    "stateCode": "OR",
    "state": "Oregon",
    "stateFIPS": "41",
    "countyFIPS": "039",
    "countyName": "Lane County",
    "population": 176654,
    "lat": 44.0521,
    "lng": -123.0867,
    "slug": "eugene",
    "tier": 1
  },
  {
    "name": "Tempe",
    "stateCode": "AZ",
    "state": "Arizona",
    "stateFIPS": "04",
    "countyFIPS": "013",
    "countyName": "Maricopa County",
    "population": 175826,
    "lat": 33.4148,
    "lng": -111.9093,
    "slug": "tempe",
    "tier": 1
  },
  {
    "name": "Oceanside",
    "stateCode": "CA",
    "state": "California",
    "stateFIPS": "06",
    "countyFIPS": "073",
    "countyName": "San Diego County",
    "population": 175691,
    "lat": 33.1959,
    "lng": -117.3795,
    "slug": "oceanside-ca",
    "tier": 1
  },
  {
    "name": "Salem",
    "stateCode": "OR",
    "state": "Oregon",
    "stateFIPS": "41",
    "countyFIPS": "047",
    "countyName": "Marion County",
    "population": 175535,
    "lat": 44.9429,
    "lng": -123.0351,
    "slug": "salem-or",
    "tier": 1
  },
  {
    "name": "Garden Grove",
    "stateCode": "CA",
    "state": "California",
    "stateFIPS": "06",
    "countyFIPS": "059",
    "countyName": "Orange County",
    "population": 175393,
    "lat": 33.7739,
    "lng": -117.9414,
    "slug": "garden-grove",
    "tier": 1
  },
  {
    "name": "Rancho Cucamonga",
    "stateCode": "CA",
    "state": "California",
    "stateFIPS": "06",
    "countyFIPS": "071",
    "countyName": "San Bernardino County",
    "population": 175236,
    "lat": 34.1064,
    "lng": -117.5931,
    "slug": "rancho-cucamonga",
    "tier": 1
  },
  {
    "name": "Cape Coral",
    "stateCode": "FL",
    "state": "Florida",
    "stateFIPS": "12",
    "countyFIPS": "071",
    "countyName": "Lee County",
    "population": 175229,
    "lat": 26.5629,
    "lng": -81.9495,
    "slug": "cape-coral",
    "tier": 1
  },
  {
    "name": "Sioux Falls",
    "stateCode": "SD",
    "state": "South Dakota",
    "stateFIPS": "46",
    "countyFIPS": "099",
    "countyName": "Minnehaha County",
    "population": 171544,
    "lat": 43.5437,
    "lng": -96.728,
    "slug": "sioux-falls",
    "tier": 1
  },
  {
    "name": "Ontario",
    "stateCode": "CA",
    "state": "California",
    "stateFIPS": "06",
    "countyFIPS": "071",
    "countyName": "San Bernardino County",
    "population": 171214,
    "lat": 34.0633,
    "lng": -117.6509,
    "slug": "ontario-ca",
    "tier": 1
  },
  {
    "name": "Fort Collins",
    "stateCode": "CO",
    "state": "Colorado",
    "stateFIPS": "08",
    "countyFIPS": "069",
    "countyName": "Larimer County",
    "population": 170924,
    "lat": 40.5853,
    "lng": -105.0844,
    "slug": "fort-collins",
    "tier": 1
  },
  {
    "name": "Springfield",
    "stateCode": "MO",
    "state": "Missouri",
    "stateFIPS": "29",
    "countyFIPS": "077",
    "countyName": "Greene County",
    "population": 170188,
    "lat": 37.2153,
    "lng": -93.2982,
    "slug": "springfield-mo",
    "tier": 1
  },
  {
    "name": "Hollywood",
    "stateCode": "CA",
    "state": "California",
    "stateFIPS": "06",
    "countyFIPS": "037",
    "countyName": "Los Angeles County",
    "population": 167664,
    "lat": 34.0983,
    "lng": -118.3267,
    "slug": "hollywood-ca",
    "tier": 1
  },
  {
    "name": "Elk Grove",
    "stateCode": "CA",
    "state": "California",
    "stateFIPS": "06",
    "countyFIPS": "067",
    "countyName": "Sacramento County",
    "population": 166913,
    "lat": 38.4088,
    "lng": -121.3716,
    "slug": "elk-grove",
    "tier": 1
  },
  {
    "name": "Clarksville",
    "stateCode": "TN",
    "state": "Tennessee",
    "stateFIPS": "47",
    "countyFIPS": "125",
    "countyName": "Montgomery County",
    "population": 166722,
    "lat": 36.5298,
    "lng": -87.3594,
    "slug": "clarksville-tn",
    "tier": 1
  },
  {
    "name": "Pembroke Pines",
    "stateCode": "FL",
    "state": "Florida",
    "stateFIPS": "12",
    "countyFIPS": "011",
    "countyName": "Broward County",
    "population": 166611,
    "lat": 26.0032,
    "lng": -80.2239,
    "slug": "pembroke-pines",
    "tier": 1
  },
  {
    "name": "Deer Valley",
    "stateCode": "AZ",
    "state": "Arizona",
    "stateFIPS": "04",
    "countyFIPS": "013",
    "countyName": "Maricopa County",
    "population": 165656,
    "lat": 33.6839,
    "lng": -112.1349,
    "slug": "deer-valley",
    "tier": 1
  },
  {
    "name": "Murfreesboro",
    "stateCode": "TN",
    "state": "Tennessee",
    "stateFIPS": "47",
    "countyFIPS": "149",
    "countyName": "Rutherford County",
    "population": 165430,
    "lat": 35.8456,
    "lng": -86.3903,
    "slug": "murfreesboro",
    "tier": 1
  },
  {
    "name": "Port Saint Lucie",
    "stateCode": "FL",
    "state": "Florida",
    "stateFIPS": "12",
    "countyFIPS": "111",
    "countyName": "St. Lucie County",
    "population": 164603,
    "lat": 27.2939,
    "lng": -80.3503,
    "slug": "port-saint-lucie",
    "tier": 1
  },
  {
    "name": "Corona",
    "stateCode": "CA",
    "state": "California",
    "stateFIPS": "06",
    "countyFIPS": "065",
    "countyName": "Riverside County",
    "population": 164226,
    "lat": 33.8753,
    "lng": -117.5664,
    "slug": "corona-ca",
    "tier": 1
  },
  {
    "name": "McKinney",
    "stateCode": "TX",
    "state": "Texas",
    "stateFIPS": "48",
    "countyFIPS": "085",
    "countyName": "Collin County",
    "population": 162898,
    "lat": 33.1976,
    "lng": -96.6153,
    "slug": "mckinney",
    "tier": 1
  },
  {
    "name": "Lancaster",
    "stateCode": "CA",
    "state": "California",
    "stateFIPS": "06",
    "countyFIPS": "037",
    "countyName": "Los Angeles County",
    "population": 161103,
    "lat": 34.698,
    "lng": -118.1367,
    "slug": "lancaster-ca",
    "tier": 1
  },
  {
    "name": "Cary",
    "stateCode": "NC",
    "state": "North Carolina",
    "stateFIPS": "37",
    "countyFIPS": "183",
    "countyName": "Wake County",
    "population": 159769,
    "lat": 35.7915,
    "lng": -78.7811,
    "slug": "cary-nc",
    "tier": 1
  },
  {
    "name": "Alexandria",
    "stateCode": "VA",
    "state": "Virginia",
    "stateFIPS": "51",
    "countyFIPS": "510",
    "countyName": "Alexandria city",
    "population": 159467,
    "lat": 38.8048,
    "lng": -77.0469,
    "slug": "alexandria-va",
    "tier": 1
  },
  {
    "name": "Tempe Junction",
    "stateCode": "AZ",
    "state": "Arizona",
    "stateFIPS": "04",
    "countyFIPS": "013",
    "countyName": "Maricopa County",
    "population": 158368,
    "lat": 33.4142,
    "lng": -111.9435,
    "slug": "tempe-junction",
    "tier": 1
  },
  {
    "name": "Palmdale",
    "stateCode": "CA",
    "state": "California",
    "stateFIPS": "06",
    "countyFIPS": "037",
    "countyName": "Los Angeles County",
    "population": 158351,
    "lat": 34.5794,
    "lng": -118.1165,
    "slug": "palmdale",
    "tier": 1
  },
  {
    "name": "Hayward",
    "stateCode": "CA",
    "state": "California",
    "stateFIPS": "06",
    "countyFIPS": "001",
    "countyName": "Alameda County",
    "population": 158289,
    "lat": 37.6688,
    "lng": -122.0808,
    "slug": "hayward",
    "tier": 1
  },
  {
    "name": "Salinas",
    "stateCode": "CA",
    "state": "California",
    "stateFIPS": "06",
    "countyFIPS": "053",
    "countyName": "Monterey County",
    "population": 157380,
    "lat": 36.6777,
    "lng": -121.6555,
    "slug": "salinas",
    "tier": 1
  },
  {
    "name": "Sunnyvale",
    "stateCode": "CA",
    "state": "California",
    "stateFIPS": "06",
    "countyFIPS": "085",
    "countyName": "Santa Clara County",
    "population": 155805,
    "lat": 37.3688,
    "lng": -122.0363,
    "slug": "sunnyvale",
    "tier": 1
  },
  {
    "name": "Frisco",
    "stateCode": "TX",
    "state": "Texas",
    "stateFIPS": "48",
    "countyFIPS": "085",
    "countyName": "Collin County",
    "population": 154407,
    "lat": 33.1507,
    "lng": -96.8236,
    "slug": "frisco",
    "tier": 1
  },
  {
    "name": "Springfield",
    "stateCode": "MA",
    "state": "Massachusetts",
    "stateFIPS": "25",
    "countyFIPS": "013",
    "countyName": "Hampden County",
    "population": 154341,
    "lat": 42.1015,
    "lng": -72.5898,
    "slug": "springfield-ma",
    "tier": 1
  },
  {
    "name": "East Chattanooga",
    "stateCode": "TN",
    "state": "Tennessee",
    "stateFIPS": "47",
    "countyFIPS": "065",
    "countyName": "Hamilton County",
    "population": 154024,
    "lat": 35.0654,
    "lng": -85.2491,
    "slug": "east-chattanooga",
    "tier": 1
  },
  {
    "name": "Pasadena",
    "stateCode": "TX",
    "state": "Texas",
    "stateFIPS": "48",
    "countyFIPS": "201",
    "countyName": "Harris County",
    "population": 153784,
    "lat": 29.6911,
    "lng": -95.2091,
    "slug": "pasadena-tx",
    "tier": 1
  },
  {
    "name": "Jackson",
    "stateCode": "MS",
    "state": "Mississippi",
    "stateFIPS": "28",
    "countyFIPS": "049",
    "countyName": "Hinds County",
    "population": 153701,
    "lat": 32.2988,
    "lng": -90.1848,
    "slug": "jackson-ms",
    "tier": 1
  },
  {
    "name": "Pomona",
    "stateCode": "CA",
    "state": "California",
    "stateFIPS": "06",
    "countyFIPS": "037",
    "countyName": "Los Angeles County",
    "population": 153266,
    "lat": 34.0553,
    "lng": -117.7523,
    "slug": "pomona",
    "tier": 1
  },
  {
    "name": "Kansas City",
    "stateCode": "KS",
    "state": "Kansas",
    "stateFIPS": "20",
    "countyFIPS": "209",
    "countyName": "Wyandotte County",
    "population": 152933,
    "lat": 39.1142,
    "lng": -94.6275,
    "slug": "kansas-city-ks",
    "tier": 1
  },
  {
    "name": "Washington Heights",
    "stateCode": "NY",
    "state": "New York",
    "stateFIPS": "36",
    "countyFIPS": "061",
    "countyName": "New York County",
    "population": 152613,
    "lat": 40.8501,
    "lng": -73.9354,
    "slug": "washington-heights",
    "tier": 1
  },
  {
    "name": "Lakewood",
    "stateCode": "CO",
    "state": "Colorado",
    "stateFIPS": "08",
    "countyFIPS": "059",
    "countyName": "Jefferson County",
    "population": 152597,
    "lat": 39.7047,
    "lng": -105.0814,
    "slug": "lakewood-co",
    "tier": 1
  },
  {
    "name": "Escondido",
    "stateCode": "CA",
    "state": "California",
    "stateFIPS": "06",
    "countyFIPS": "073",
    "countyName": "San Diego County",
    "population": 151038,
    "lat": 33.1192,
    "lng": -117.0864,
    "slug": "escondido",
    "tier": 1
  },
  {
    "name": "Astoria",
    "stateCode": "NY",
    "state": "New York",
    "stateFIPS": "36",
    "countyFIPS": "081",
    "countyName": "Queens County",
    "population": 150165,
    "lat": 40.7721,
    "lng": -73.9301,
    "slug": "astoria",
    "tier": 1
  },
  {
    "name": "Hollywood",
    "stateCode": "FL",
    "state": "Florida",
    "stateFIPS": "12",
    "countyFIPS": "011",
    "countyName": "Broward County",
    "population": 149728,
    "lat": 26.0112,
    "lng": -80.1495,
    "slug": "hollywood-fl",
    "tier": 1
  },
  {
    "name": "Borough Park",
    "stateCode": "NY",
    "state": "New York",
    "stateFIPS": "36",
    "countyFIPS": "047",
    "countyName": "Kings County",
    "population": 149248,
    "lat": 40.634,
    "lng": -73.9968,
    "slug": "borough-park",
    "tier": 1
  },
  {
    "name": "Valencia",
    "stateCode": "CA",
    "state": "California",
    "stateFIPS": "06",
    "countyFIPS": "037",
    "countyName": "Los Angeles County",
    "population": 148456,
    "lat": 34.4436,
    "lng": -118.6095,
    "slug": "valencia",
    "tier": 1
  },
  {
    "name": "Rockford",
    "stateCode": "IL",
    "state": "Illinois",
    "stateFIPS": "17",
    "countyFIPS": "201",
    "countyName": "Winnebago County",
    "population": 148278,
    "lat": 42.2711,
    "lng": -89.094,
    "slug": "rockford",
    "tier": 1
  },
  {
    "name": "East Hampton",
    "stateCode": "VA",
    "state": "Virginia",
    "stateFIPS": "51",
    "countyFIPS": "650",
    "countyName": "Hampton city",
    "population": 147993,
    "lat": 37.0374,
    "lng": -76.3316,
    "slug": "east-hampton",
    "tier": 1
  },
  {
    "name": "Joliet",
    "stateCode": "IL",
    "state": "Illinois",
    "stateFIPS": "17",
    "countyFIPS": "197",
    "countyName": "Will County",
    "population": 147861,
    "lat": 41.5252,
    "lng": -88.0834,
    "slug": "joliet",
    "tier": 1
  },
  {
    "name": "Savannah",
    "stateCode": "GA",
    "state": "Georgia",
    "stateFIPS": "13",
    "countyFIPS": "051",
    "countyName": "Chatham County",
    "population": 147780,
    "lat": 32.0835,
    "lng": -81.0998,
    "slug": "savannah",
    "tier": 1
  },
  {
    "name": "Paterson",
    "stateCode": "NJ",
    "state": "New Jersey",
    "stateFIPS": "34",
    "countyFIPS": "031",
    "countyName": "Passaic County",
    "population": 147754,
    "lat": 40.9168,
    "lng": -74.1718,
    "slug": "paterson",
    "tier": 1
  },
  {
    "name": "Bridgeport",
    "stateCode": "CT",
    "state": "Connecticut",
    "stateFIPS": "09",
    "countyFIPS": "120",
    "countyName": "Greater Bridgeport Planning Region",
    "population": 147629,
    "lat": 41.1792,
    "lng": -73.1894,
    "slug": "bridgeport-ct",
    "tier": 1
  },
  {
    "name": "Naperville",
    "stateCode": "IL",
    "state": "Illinois",
    "stateFIPS": "17",
    "countyFIPS": "043",
    "countyName": "DuPage County",
    "population": 147100,
    "lat": 41.7859,
    "lng": -88.1473,
    "slug": "naperville",
    "tier": 1
  },
  {
    "name": "Gainesville",
    "stateCode": "FL",
    "state": "Florida",
    "stateFIPS": "12",
    "countyFIPS": "001",
    "countyName": "Alachua County",
    "population": 145214,
    "lat": 29.6516,
    "lng": -82.3248,
    "slug": "gainesville-fl",
    "tier": 1
  },
  {
    "name": "Mesquite",
    "stateCode": "TX",
    "state": "Texas",
    "stateFIPS": "48",
    "countyFIPS": "113",
    "countyName": "Dallas County",
    "population": 144788,
    "lat": 32.7668,
    "lng": -96.5992,
    "slug": "mesquite-tx",
    "tier": 1
  },
  {
    "name": "Syracuse",
    "stateCode": "NY",
    "state": "New York",
    "stateFIPS": "36",
    "countyFIPS": "067",
    "countyName": "Onondaga County",
    "population": 144142,
    "lat": 43.0481,
    "lng": -76.1474,
    "slug": "syracuse-ny",
    "tier": 1
  },
  {
    "name": "Torrance",
    "stateCode": "CA",
    "state": "California",
    "stateFIPS": "06",
    "countyFIPS": "037",
    "countyName": "Los Angeles County",
    "population": 143592,
    "lat": 33.8359,
    "lng": -118.3406,
    "slug": "torrance",
    "tier": 1
  },
  {
    "name": "Surprise",
    "stateCode": "AZ",
    "state": "Arizona",
    "stateFIPS": "04",
    "countyFIPS": "013",
    "countyName": "Maricopa County",
    "population": 143148,
    "lat": 33.6306,
    "lng": -112.3332,
    "slug": "surprise",
    "tier": 1
  },
  {
    "name": "Metairie Terrace",
    "stateCode": "LA",
    "state": "Louisiana",
    "stateFIPS": "22",
    "countyFIPS": "051",
    "countyName": "Jefferson Parish",
    "population": 142489,
    "lat": 29.9785,
    "lng": -90.164,
    "slug": "metairie-terrace",
    "tier": 1
  },
  {
    "name": "Columbia",
    "stateCode": "SC",
    "state": "South Carolina",
    "stateFIPS": "45",
    "countyFIPS": "079",
    "countyName": "Richland County",
    "population": 142416,
    "lat": 34.0007,
    "lng": -81.0348,
    "slug": "columbia-sc",
    "tier": 1
  },
  {
    "name": "Pasadena",
    "stateCode": "CA",
    "state": "California",
    "stateFIPS": "06",
    "countyFIPS": "037",
    "countyName": "Los Angeles County",
    "population": 142250,
    "lat": 34.1478,
    "lng": -118.1445,
    "slug": "pasadena-ca",
    "tier": 1
  },
  {
    "name": "Orange",
    "stateCode": "CA",
    "state": "California",
    "stateFIPS": "06",
    "countyFIPS": "059",
    "countyName": "Orange County",
    "population": 140992,
    "lat": 33.7878,
    "lng": -117.8531,
    "slug": "orange-ca",
    "tier": 1
  },
  {
    "name": "Fullerton",
    "stateCode": "CA",
    "state": "California",
    "stateFIPS": "06",
    "countyFIPS": "059",
    "countyName": "Orange County",
    "population": 140847,
    "lat": 33.8703,
    "lng": -117.9253,
    "slug": "fullerton-ca",
    "tier": 1
  },
  {
    "name": "Killeen",
    "stateCode": "TX",
    "state": "Texas",
    "stateFIPS": "48",
    "countyFIPS": "027",
    "countyName": "Bell County",
    "population": 140806,
    "lat": 31.1171,
    "lng": -97.7278,
    "slug": "killeen",
    "tier": 1
  },
  {
    "name": "McAllen",
    "stateCode": "TX",
    "state": "Texas",
    "stateFIPS": "48",
    "countyFIPS": "215",
    "countyName": "Hidalgo County",
    "population": 140269,
    "lat": 26.2034,
    "lng": -98.23,
    "slug": "mcallen",
    "tier": 1
  },
  {
    "name": "Bellevue",
    "stateCode": "WA",
    "state": "Washington",
    "stateFIPS": "53",
    "countyFIPS": "033",
    "countyName": "King County",
    "population": 139820,
    "lat": 47.6104,
    "lng": -122.2007,
    "slug": "bellevue-wa",
    "tier": 1
  },
  {
    "name": "Metairie",
    "stateCode": "LA",
    "state": "Louisiana",
    "stateFIPS": "22",
    "countyFIPS": "051",
    "countyName": "Jefferson Parish",
    "population": 138481,
    "lat": 29.9841,
    "lng": -90.1528,
    "slug": "metairie",
    "tier": 1
  },
  {
    "name": "Hampton",
    "stateCode": "VA",
    "state": "Virginia",
    "stateFIPS": "51",
    "countyFIPS": "650",
    "countyName": "Hampton city",
    "population": 137148,
    "lat": 37.0299,
    "lng": -76.3452,
    "slug": "hampton",
    "tier": 1
  },
  {
    "name": "Miramar",
    "stateCode": "FL",
    "state": "Florida",
    "stateFIPS": "12",
    "countyFIPS": "011",
    "countyName": "Broward County",
    "population": 137132,
    "lat": 25.9873,
    "lng": -80.2323,
    "slug": "miramar",
    "tier": 1
  },
  {
    "name": "Van Nuys",
    "stateCode": "CA",
    "state": "California",
    "stateFIPS": "06",
    "countyFIPS": "037",
    "countyName": "Los Angeles County",
    "population": 136443,
    "lat": 34.1867,
    "lng": -118.449,
    "slug": "van-nuys",
    "tier": 1
  },
  {
    "name": "West Valley City",
    "stateCode": "UT",
    "state": "Utah",
    "stateFIPS": "49",
    "countyFIPS": "035",
    "countyName": "Salt Lake County",
    "population": 136208,
    "lat": 40.6916,
    "lng": -112.001,
    "slug": "west-valley-city",
    "tier": 1
  },
  {
    "name": "Dayton",
    "stateCode": "OH",
    "state": "Ohio",
    "stateFIPS": "39",
    "countyFIPS": "113",
    "countyName": "Montgomery County",
    "population": 135512,
    "lat": 39.759,
    "lng": -84.1916,
    "slug": "dayton",
    "tier": 1
  },
  {
    "name": "Olathe",
    "stateCode": "KS",
    "state": "Kansas",
    "stateFIPS": "20",
    "countyFIPS": "091",
    "countyName": "Johnson County",
    "population": 134305,
    "lat": 38.8814,
    "lng": -94.8191,
    "slug": "olathe",
    "tier": 1
  },
  {
    "name": "Warren",
    "stateCode": "MI",
    "state": "Michigan",
    "stateFIPS": "26",
    "countyFIPS": "099",
    "countyName": "Macomb County",
    "population": 134056,
    "lat": 42.4904,
    "lng": -83.013,
    "slug": "warren-mi",
    "tier": 1
  },
  {
    "name": "Thornton",
    "stateCode": "CO",
    "state": "Colorado",
    "stateFIPS": "08",
    "countyFIPS": "001",
    "countyName": "Adams County",
    "population": 133451,
    "lat": 39.868,
    "lng": -104.9719,
    "slug": "thornton",
    "tier": 1
  },
  {
    "name": "Carrollton",
    "stateCode": "TX",
    "state": "Texas",
    "stateFIPS": "48",
    "countyFIPS": "113",
    "countyName": "Dallas County",
    "population": 133168,
    "lat": 32.9537,
    "lng": -96.8903,
    "slug": "carrollton-tx",
    "tier": 1
  },
  {
    "name": "Charleston",
    "stateCode": "SC",
    "state": "South Carolina",
    "stateFIPS": "45",
    "countyFIPS": "019",
    "countyName": "Charleston County",
    "population": 132609,
    "lat": 32.7763,
    "lng": -79.9327,
    "slug": "charleston-sc",
    "tier": 1
  },
  {
    "name": "Midland",
    "stateCode": "TX",
    "state": "Texas",
    "stateFIPS": "48",
    "countyFIPS": "329",
    "countyName": "Midland County",
    "population": 132524,
    "lat": 31.9974,
    "lng": -102.0779,
    "slug": "midland-tx",
    "tier": 1
  },
  {
    "name": "Waco",
    "stateCode": "TX",
    "state": "Texas",
    "stateFIPS": "48",
    "countyFIPS": "309",
    "countyName": "McLennan County",
    "population": 132356,
    "lat": 31.5493,
    "lng": -97.1467,
    "slug": "waco",
    "tier": 1
  },
  {
    "name": "Sterling Heights",
    "stateCode": "MI",
    "state": "Michigan",
    "stateFIPS": "26",
    "countyFIPS": "099",
    "countyName": "Macomb County",
    "population": 132052,
    "lat": 42.5803,
    "lng": -83.0302,
    "slug": "sterling-heights",
    "tier": 1
  },
  {
    "name": "Denton",
    "stateCode": "TX",
    "state": "Texas",
    "stateFIPS": "48",
    "countyFIPS": "121",
    "countyName": "Denton County",
    "population": 131044,
    "lat": 33.2148,
    "lng": -97.1331,
    "slug": "denton",
    "tier": 1
  },
  {
    "name": "Cedar Rapids",
    "stateCode": "IA",
    "state": "Iowa",
    "stateFIPS": "19",
    "countyFIPS": "113",
    "countyName": "Linn County",
    "population": 130405,
    "lat": 42.0083,
    "lng": -91.6441,
    "slug": "cedar-rapids",
    "tier": 1
  },
  {
    "name": "New Haven",
    "stateCode": "CT",
    "state": "Connecticut",
    "stateFIPS": "09",
    "countyFIPS": "170",
    "countyName": "South Central Connecticut Planning Region",
    "population": 130322,
    "lat": 41.3082,
    "lng": -72.9282,
    "slug": "new-haven-ct",
    "tier": 1
  },
  {
    "name": "Roseville",
    "stateCode": "CA",
    "state": "California",
    "stateFIPS": "06",
    "countyFIPS": "061",
    "countyName": "Placer County",
    "population": 130269,
    "lat": 38.7521,
    "lng": -121.288,
    "slug": "roseville-ca",
    "tier": 1
  },
  {
    "name": "Visalia",
    "stateCode": "CA",
    "state": "California",
    "stateFIPS": "06",
    "countyFIPS": "107",
    "countyName": "Tulare County",
    "population": 130104,
    "lat": 36.3302,
    "lng": -119.2921,
    "slug": "visalia",
    "tier": 1
  },
  {
    "name": "Coral Springs",
    "stateCode": "FL",
    "state": "Florida",
    "stateFIPS": "12",
    "countyFIPS": "011",
    "countyName": "Broward County",
    "population": 129485,
    "lat": 26.2712,
    "lng": -80.2706,
    "slug": "coral-springs",
    "tier": 1
  },
  {
    "name": "Thousand Oaks",
    "stateCode": "CA",
    "state": "California",
    "stateFIPS": "06",
    "countyFIPS": "111",
    "countyName": "Ventura County",
    "population": 129339,
    "lat": 34.1706,
    "lng": -118.8376,
    "slug": "thousand-oaks",
    "tier": 1
  },
  {
    "name": "Columbia",
    "stateCode": "MO",
    "state": "Missouri",
    "stateFIPS": "29",
    "countyFIPS": "019",
    "countyName": "Boone County",
    "population": 129330,
    "lat": 38.9517,
    "lng": -92.3341,
    "slug": "columbia-mo",
    "tier": 1
  },
  {
    "name": "Elizabeth",
    "stateCode": "NJ",
    "state": "New Jersey",
    "stateFIPS": "34",
    "countyFIPS": "039",
    "countyName": "Union County",
    "population": 129007,
    "lat": 40.664,
    "lng": -74.2107,
    "slug": "elizabeth",
    "tier": 1
  },
  {
    "name": "Stamford",
    "stateCode": "CT",
    "state": "Connecticut",
    "stateFIPS": "09",
    "countyFIPS": "190",
    "countyName": "Western Connecticut Planning Region",
    "population": 128874,
    "lat": 41.0534,
    "lng": -73.5387,
    "slug": "stamford",
    "tier": 1
  },
  {
    "name": "Concord",
    "stateCode": "CA",
    "state": "California",
    "stateFIPS": "06",
    "countyFIPS": "013",
    "countyName": "Contra Costa County",
    "population": 128667,
    "lat": 37.978,
    "lng": -122.0311,
    "slug": "concord-ca",
    "tier": 1
  },
  {
    "name": "Norman",
    "stateCode": "OK",
    "state": "Oklahoma",
    "stateFIPS": "40",
    "countyFIPS": "027",
    "countyName": "Cleveland County",
    "population": 128026,
    "lat": 35.2226,
    "lng": -97.4395,
    "slug": "norman",
    "tier": 1
  },
  {
    "name": "Alhambra",
    "stateCode": "AZ",
    "state": "Arizona",
    "stateFIPS": "04",
    "countyFIPS": "013",
    "countyName": "Maricopa County",
    "population": 127764,
    "lat": 33.4984,
    "lng": -112.1343,
    "slug": "alhambra-az",
    "tier": 1
  },
  {
    "name": "Athens",
    "stateCode": "GA",
    "state": "Georgia",
    "stateFIPS": "13",
    "countyFIPS": "059",
    "countyName": "Clarke County",
    "population": 127315,
    "lat": 33.9609,
    "lng": -83.3779,
    "slug": "athens-ga",
    "tier": 1
  },
  {
    "name": "Kent",
    "stateCode": "WA",
    "state": "Washington",
    "stateFIPS": "53",
    "countyFIPS": "033",
    "countyName": "King County",
    "population": 126952,
    "lat": 47.3809,
    "lng": -122.2348,
    "slug": "kent-wa",
    "tier": 1
  },
  {
    "name": "Simi Valley",
    "stateCode": "CA",
    "state": "California",
    "stateFIPS": "06",
    "countyFIPS": "111",
    "countyName": "Ventura County",
    "population": 126788,
    "lat": 34.2695,
    "lng": -118.7815,
    "slug": "simi-valley",
    "tier": 1
  },
  {
    "name": "East Los Angeles",
    "stateCode": "CA",
    "state": "California",
    "stateFIPS": "06",
    "countyFIPS": "037",
    "countyName": "Los Angeles County",
    "population": 126496,
    "lat": 34.0239,
    "lng": -118.172,
    "slug": "east-los-angeles",
    "tier": 1
  },
  {
    "name": "Santa Clara",
    "stateCode": "CA",
    "state": "California",
    "stateFIPS": "06",
    "countyFIPS": "085",
    "countyName": "Santa Clara County",
    "population": 126215,
    "lat": 37.3541,
    "lng": -121.9552,
    "slug": "santa-clara",
    "tier": 1
  },
  {
    "name": "Sunset Park",
    "stateCode": "NY",
    "state": "New York",
    "stateFIPS": "36",
    "countyFIPS": "047",
    "countyName": "Kings County",
    "population": 126000,
    "lat": 40.6455,
    "lng": -74.0124,
    "slug": "sunset-park",
    "tier": 1
  },
  {
    "name": "Topeka",
    "stateCode": "KS",
    "state": "Kansas",
    "stateFIPS": "20",
    "countyFIPS": "177",
    "countyName": "Shawnee County",
    "population": 125963,
    "lat": 39.0483,
    "lng": -95.678,
    "slug": "topeka",
    "tier": 1
  },
  {
    "name": "Abilene",
    "stateCode": "TX",
    "state": "Texas",
    "stateFIPS": "48",
    "countyFIPS": "441",
    "countyName": "Taylor County",
    "population": 125182,
    "lat": 32.4487,
    "lng": -99.7331,
    "slug": "abilene",
    "tier": 1
  },
  {
    "name": "Koreatown",
    "stateCode": "CA",
    "state": "California",
    "stateFIPS": "06",
    "countyFIPS": "037",
    "countyName": "Los Angeles County",
    "population": 124281,
    "lat": 34.0578,
    "lng": -118.3009,
    "slug": "koreatown",
    "tier": 1
  },
  {
    "name": "Sheepshead Bay",
    "stateCode": "NY",
    "state": "New York",
    "stateFIPS": "36",
    "countyFIPS": "047",
    "countyName": "Kings County",
    "population": 122534,
    "lat": 40.5912,
    "lng": -73.9446,
    "slug": "sheepshead-bay",
    "tier": 1
  },
  {
    "name": "Amherst",
    "stateCode": "NY",
    "state": "New York",
    "stateFIPS": "36",
    "countyFIPS": "029",
    "countyName": "Erie County",
    "population": 122366,
    "lat": 42.9784,
    "lng": -78.7998,
    "slug": "amherst-ny",
    "tier": 1
  },
  {
    "name": "Victorville",
    "stateCode": "CA",
    "state": "California",
    "stateFIPS": "06",
    "countyFIPS": "071",
    "countyName": "San Bernardino County",
    "population": 122225,
    "lat": 34.5361,
    "lng": -117.2912,
    "slug": "victorville",
    "tier": 1
  },
  {
    "name": "Vallejo",
    "stateCode": "CA",
    "state": "California",
    "stateFIPS": "06",
    "countyFIPS": "095",
    "countyName": "Solano County",
    "population": 121692,
    "lat": 38.1041,
    "lng": -122.2566,
    "slug": "vallejo",
    "tier": 1
  },
  {
    "name": "Lafayette",
    "stateCode": "LA",
    "state": "Louisiana",
    "stateFIPS": "22",
    "countyFIPS": "055",
    "countyName": "Lafayette Parish",
    "population": 121374,
    "lat": 30.2241,
    "lng": -92.0198,
    "slug": "lafayette-la",
    "tier": 1
  },
  {
    "name": "Chico",
    "stateCode": "CA",
    "state": "California",
    "stateFIPS": "06",
    "countyFIPS": "007",
    "countyName": "Butte County",
    "population": 121345,
    "lat": 39.7285,
    "lng": -121.8375,
    "slug": "chico",
    "tier": 1
  },
  {
    "name": "North Stamford",
    "stateCode": "CT",
    "state": "Connecticut",
    "stateFIPS": "09",
    "countyFIPS": "190",
    "countyName": "Western Connecticut Planning Region",
    "population": 121230,
    "lat": 41.1382,
    "lng": -73.5435,
    "slug": "north-stamford",
    "tier": 1
  },
  {
    "name": "Hartford",
    "stateCode": "CT",
    "state": "Connecticut",
    "stateFIPS": "09",
    "countyFIPS": "110",
    "countyName": "Capitol Planning Region",
    "population": 121054,
    "lat": 41.7637,
    "lng": -72.6851,
    "slug": "hartford-ct",
    "tier": 1
  },
  {
    "name": "Berkeley",
    "stateCode": "CA",
    "state": "California",
    "stateFIPS": "06",
    "countyFIPS": "001",
    "countyName": "Alameda County",
    "population": 120972,
    "lat": 37.8716,
    "lng": -122.2727,
    "slug": "berkeley",
    "tier": 1
  },
  {
    "name": "West Palm Beach",
    "stateCode": "FL",
    "state": "Florida",
    "stateFIPS": "12",
    "countyFIPS": "099",
    "countyName": "Palm Beach County",
    "population": 120932,
    "lat": 26.7153,
    "lng": -80.0534,
    "slug": "west-palm-beach",
    "tier": 1
  },
  {
    "name": "Allentown",
    "stateCode": "PA",
    "state": "Pennsylvania",
    "stateFIPS": "42",
    "countyFIPS": "077",
    "countyName": "Lehigh County",
    "population": 120207,
    "lat": 40.6084,
    "lng": -75.4902,
    "slug": "allentown",
    "tier": 1
  },
  {
    "name": "Evansville",
    "stateCode": "IN",
    "state": "Indiana",
    "stateFIPS": "18",
    "countyFIPS": "163",
    "countyName": "Vanderburgh County",
    "population": 119943,
    "lat": 37.9748,
    "lng": -87.5559,
    "slug": "evansville",
    "tier": 1
  },
  {
    "name": "Palm Bay",
    "stateCode": "FL",
    "state": "Florida",
    "stateFIPS": "12",
    "countyFIPS": "009",
    "countyName": "Brevard County",
    "population": 119760,
    "lat": 28.0345,
    "lng": -80.5887,
    "slug": "palm-bay",
    "tier": 1
  },
  {
    "name": "Fargo",
    "stateCode": "ND",
    "state": "North Dakota",
    "stateFIPS": "38",
    "countyFIPS": "017",
    "countyName": "Cass County",
    "population": 118523,
    "lat": 46.8772,
    "lng": -96.7898,
    "slug": "fargo",
    "tier": 1
  },
  {
    "name": "Clearwater",
    "stateCode": "FL",
    "state": "Florida",
    "stateFIPS": "12",
    "countyFIPS": "103",
    "countyName": "Pinellas County",
    "population": 117292,
    "lat": 27.9659,
    "lng": -82.8001,
    "slug": "clearwater",
    "tier": 1
  },
  {
    "name": "Independence",
    "stateCode": "MO",
    "state": "Missouri",
    "stateFIPS": "29",
    "countyFIPS": "095",
    "countyName": "Jackson County",
    "population": 117255,
    "lat": 39.0911,
    "lng": -94.4155,
    "slug": "independence-mo",
    "tier": 1
  },
  {
    "name": "Billings",
    "stateCode": "MT",
    "state": "Montana",
    "stateFIPS": "30",
    "countyFIPS": "111",
    "countyName": "Yellowstone County",
    "population": 117116,
    "lat": 45.7833,
    "lng": -108.5007,
    "slug": "billings",
    "tier": 1
  },
  {
    "name": "Ann Arbor",
    "stateCode": "MI",
    "state": "Michigan",
    "stateFIPS": "26",
    "countyFIPS": "161",
    "countyName": "Washtenaw County",
    "population": 117070,
    "lat": 42.2776,
    "lng": -83.7409,
    "slug": "ann-arbor",
    "tier": 1
  },
  {
    "name": "El Monte",
    "stateCode": "CA",
    "state": "California",
    "stateFIPS": "06",
    "countyFIPS": "037",
    "countyName": "Los Angeles County",
    "population": 116732,
    "lat": 34.0686,
    "lng": -118.0276,
    "slug": "el-monte",
    "tier": 1
  },
  {
    "name": "Harlem",
    "stateCode": "NY",
    "state": "New York",
    "stateFIPS": "36",
    "countyFIPS": "061",
    "countyName": "New York County",
    "population": 116345,
    "lat": 40.8079,
    "lng": -73.9454,
    "slug": "harlem",
    "tier": 1
  },
  {
    "name": "Westminster",
    "stateCode": "CO",
    "state": "Colorado",
    "stateFIPS": "08",
    "countyFIPS": "001",
    "countyName": "Adams County",
    "population": 116317,
    "lat": 39.8367,
    "lng": -105.0372,
    "slug": "westminster-co",
    "tier": 1
  },
  {
    "name": "Round Rock",
    "stateCode": "TX",
    "state": "Texas",
    "stateFIPS": "48",
    "countyFIPS": "491",
    "countyName": "Williamson County",
    "population": 115997,
    "lat": 30.5083,
    "lng": -97.6789,
    "slug": "round-rock",
    "tier": 1
  },
  {
    "name": "Wilmington",
    "stateCode": "NC",
    "state": "North Carolina",
    "stateFIPS": "37",
    "countyFIPS": "129",
    "countyName": "New Hanover County",
    "population": 115933,
    "lat": 34.2356,
    "lng": -77.946,
    "slug": "wilmington-nc",
    "tier": 1
  },
  {
    "name": "East Harlem",
    "stateCode": "NY",
    "state": "New York",
    "stateFIPS": "36",
    "countyFIPS": "061",
    "countyName": "New York County",
    "population": 115921,
    "lat": 40.7947,
    "lng": -73.9425,
    "slug": "east-harlem",
    "tier": 1
  },
  {
    "name": "Arvada",
    "stateCode": "CO",
    "state": "Colorado",
    "stateFIPS": "08",
    "countyFIPS": "059",
    "countyName": "Jefferson County",
    "population": 115368,
    "lat": 39.8028,
    "lng": -105.0875,
    "slug": "arvada",
    "tier": 1
  },
  {
    "name": "Beaumont",
    "stateCode": "TX",
    "state": "Texas",
    "stateFIPS": "48",
    "countyFIPS": "245",
    "countyName": "Jefferson County",
    "population": 115282,
    "lat": 30.0861,
    "lng": -94.1018,
    "slug": "beaumont-tx",
    "tier": 1
  },
  {
    "name": "Provo",
    "stateCode": "UT",
    "state": "Utah",
    "stateFIPS": "49",
    "countyFIPS": "049",
    "countyName": "Utah County",
    "population": 115162,
    "lat": 40.2338,
    "lng": -111.6585,
    "slug": "provo",
    "tier": 1
  },
  {
    "name": "Peoria",
    "stateCode": "IL",
    "state": "Illinois",
    "stateFIPS": "17",
    "countyFIPS": "143",
    "countyName": "Peoria County",
    "population": 115070,
    "lat": 40.6937,
    "lng": -89.589,
    "slug": "peoria-il",
    "tier": 1
  },
  {
    "name": "Carlsbad",
    "stateCode": "CA",
    "state": "California",
    "stateFIPS": "06",
    "countyFIPS": "073",
    "countyName": "San Diego County",
    "population": 114746,
    "lat": 33.1581,
    "lng": -117.3506,
    "slug": "carlsbad-ca",
    "tier": 1
  },
  {
    "name": "Odessa",
    "stateCode": "TX",
    "state": "Texas",
    "stateFIPS": "48",
    "countyFIPS": "135",
    "countyName": "Ector County",
    "population": 114428,
    "lat": 31.8457,
    "lng": -102.3676,
    "slug": "odessa",
    "tier": 1
  },
  {
    "name": "Springfield",
    "stateCode": "IL",
    "state": "Illinois",
    "stateFIPS": "17",
    "countyFIPS": "167",
    "countyName": "Sangamon County",
    "population": 114394,
    "lat": 39.8017,
    "lng": -89.6437,
    "slug": "springfield-il",
    "tier": 1
  },
  {
    "name": "Downey",
    "stateCode": "CA",
    "state": "California",
    "stateFIPS": "06",
    "countyFIPS": "037",
    "countyName": "Los Angeles County",
    "population": 114219,
    "lat": 33.94,
    "lng": -118.1326,
    "slug": "downey",
    "tier": 1
  },
  {
    "name": "Elmhurst",
    "stateCode": "NY",
    "state": "New York",
    "stateFIPS": "36",
    "countyFIPS": "081",
    "countyName": "Queens County",
    "population": 113364,
    "lat": 40.7365,
    "lng": -73.8779,
    "slug": "elmhurst-ny",
    "tier": 1
  },
  {
    "name": "Costa Mesa",
    "stateCode": "CA",
    "state": "California",
    "stateFIPS": "06",
    "countyFIPS": "059",
    "countyName": "Orange County",
    "population": 113204,
    "lat": 33.6411,
    "lng": -117.9187,
    "slug": "costa-mesa",
    "tier": 1
  },
  {
    "name": "Miami Gardens",
    "stateCode": "FL",
    "state": "Florida",
    "stateFIPS": "12",
    "countyFIPS": "086",
    "countyName": "Miami-Dade County",
    "population": 113187,
    "lat": 25.942,
    "lng": -80.2456,
    "slug": "miami-gardens",
    "tier": 1
  },
  {
    "name": "North Peoria",
    "stateCode": "IL",
    "state": "Illinois",
    "stateFIPS": "17",
    "countyFIPS": "143",
    "countyName": "Peoria County",
    "population": 113004,
    "lat": 40.7175,
    "lng": -89.5843,
    "slug": "north-peoria",
    "tier": 1
  },
  {
    "name": "Fairfield",
    "stateCode": "CA",
    "state": "California",
    "stateFIPS": "06",
    "countyFIPS": "095",
    "countyName": "Solano County",
    "population": 112970,
    "lat": 38.2494,
    "lng": -122.04,
    "slug": "fairfield-ca",
    "tier": 1
  },
  {
    "name": "Lansing",
    "stateCode": "MI",
    "state": "Michigan",
    "stateFIPS": "26",
    "countyFIPS": "065",
    "countyName": "Ingham County",
    "population": 112644,
    "lat": 42.7325,
    "lng": -84.5555,
    "slug": "lansing-mi",
    "tier": 1
  },
  {
    "name": "Bushwick",
    "stateCode": "NY",
    "state": "New York",
    "stateFIPS": "36",
    "countyFIPS": "047",
    "countyName": "Kings County",
    "population": 112620,
    "lat": 40.6943,
    "lng": -73.9187,
    "slug": "bushwick",
    "tier": 1
  },
  {
    "name": "Gravesend",
    "stateCode": "NY",
    "state": "New York",
    "stateFIPS": "36",
    "countyFIPS": "047",
    "countyName": "Kings County",
    "population": 112229,
    "lat": 40.5976,
    "lng": -73.9651,
    "slug": "gravesend",
    "tier": 1
  },
  {
    "name": "Rochester",
    "stateCode": "MN",
    "state": "Minnesota",
    "stateFIPS": "27",
    "countyFIPS": "109",
    "countyName": "Olmsted County",
    "population": 112225,
    "lat": 44.0216,
    "lng": -92.4699,
    "slug": "rochester-mn",
    "tier": 1
  },
  {
    "name": "Elgin",
    "stateCode": "IL",
    "state": "Illinois",
    "stateFIPS": "17",
    "countyFIPS": "089",
    "countyName": "Kane County",
    "population": 112111,
    "lat": 42.0373,
    "lng": -88.2812,
    "slug": "elgin",
    "tier": 1
  },
  {
    "name": "West Jordan",
    "stateCode": "UT",
    "state": "Utah",
    "stateFIPS": "49",
    "countyFIPS": "035",
    "countyName": "Salt Lake County",
    "population": 111946,
    "lat": 40.6097,
    "lng": -111.9391,
    "slug": "west-jordan",
    "tier": 1
  },
  {
    "name": "Inglewood",
    "stateCode": "CA",
    "state": "California",
    "stateFIPS": "06",
    "countyFIPS": "037",
    "countyName": "Los Angeles County",
    "population": 111666,
    "lat": 33.9617,
    "lng": -118.3531,
    "slug": "inglewood",
    "tier": 1
  },
  {
    "name": "Tuscaloosa",
    "stateCode": "AL",
    "state": "Alabama",
    "stateFIPS": "01",
    "countyFIPS": "125",
    "countyName": "Tuscaloosa County",
    "population": 111338,
    "lat": 33.2098,
    "lng": -87.5692,
    "slug": "tuscaloosa",
    "tier": 1
  },
  {
    "name": "Richardson",
    "stateCode": "TX",
    "state": "Texas",
    "stateFIPS": "48",
    "countyFIPS": "113",
    "countyName": "Dallas County",
    "population": 110815,
    "lat": 32.9482,
    "lng": -96.7297,
    "slug": "richardson",
    "tier": 1
  },
  {
    "name": "Lowell",
    "stateCode": "MA",
    "state": "Massachusetts",
    "stateFIPS": "25",
    "countyFIPS": "017",
    "countyName": "Middlesex County",
    "population": 110699,
    "lat": 42.6334,
    "lng": -71.3162,
    "slug": "lowell",
    "tier": 1
  },
  {
    "name": "East Independence",
    "stateCode": "MO",
    "state": "Missouri",
    "stateFIPS": "29",
    "countyFIPS": "095",
    "countyName": "Jackson County",
    "population": 110675,
    "lat": 39.0956,
    "lng": -94.3552,
    "slug": "east-independence",
    "tier": 1
  },
  {
    "name": "Gresham",
    "stateCode": "OR",
    "state": "Oregon",
    "stateFIPS": "41",
    "countyFIPS": "051",
    "countyName": "Multnomah County",
    "population": 110553,
    "lat": 45.4982,
    "lng": -122.4315,
    "slug": "gresham",
    "tier": 1
  },
  {
    "name": "Antioch",
    "stateCode": "CA",
    "state": "California",
    "stateFIPS": "06",
    "countyFIPS": "013",
    "countyName": "Contra Costa County",
    "population": 110542,
    "lat": 38.0049,
    "lng": -121.8058,
    "slug": "antioch-ca",
    "tier": 1
  },
  {
    "name": "Cambridge",
    "stateCode": "MA",
    "state": "Massachusetts",
    "stateFIPS": "25",
    "countyFIPS": "017",
    "countyName": "Middlesex County",
    "population": 110402,
    "lat": 42.3751,
    "lng": -71.1056,
    "slug": "cambridge-ma",
    "tier": 1
  },
  {
    "name": "High Point",
    "stateCode": "NC",
    "state": "North Carolina",
    "stateFIPS": "37",
    "countyFIPS": "081",
    "countyName": "Guilford County",
    "population": 110268,
    "lat": 35.9557,
    "lng": -80.0053,
    "slug": "high-point",
    "tier": 1
  },
  {
    "name": "Manchester",
    "stateCode": "NH",
    "state": "New Hampshire",
    "stateFIPS": "33",
    "countyFIPS": "011",
    "countyName": "Hillsborough County",
    "population": 110229,
    "lat": 42.9956,
    "lng": -71.4548,
    "slug": "manchester-nh",
    "tier": 1
  },
  {
    "name": "Temecula",
    "stateCode": "CA",
    "state": "California",
    "stateFIPS": "06",
    "countyFIPS": "065",
    "countyName": "Riverside County",
    "population": 110003,
    "lat": 33.4936,
    "lng": -117.1484,
    "slug": "temecula",
    "tier": 1
  },
  {
    "name": "Murrieta",
    "stateCode": "CA",
    "state": "California",
    "stateFIPS": "06",
    "countyFIPS": "065",
    "countyName": "Riverside County",
    "population": 109830,
    "lat": 33.5539,
    "lng": -117.2139,
    "slug": "murrieta",
    "tier": 1
  },
  {
    "name": "Centennial",
    "stateCode": "CO",
    "state": "Colorado",
    "stateFIPS": "08",
    "countyFIPS": "005",
    "countyName": "Arapahoe County",
    "population": 109741,
    "lat": 39.5792,
    "lng": -104.8769,
    "slug": "centennial",
    "tier": 1
  },
  {
    "name": "Richmond",
    "stateCode": "CA",
    "state": "California",
    "stateFIPS": "06",
    "countyFIPS": "013",
    "countyName": "Contra Costa County",
    "population": 109708,
    "lat": 37.9358,
    "lng": -122.3477,
    "slug": "richmond-ca",
    "tier": 1
  },
  {
    "name": "Corona",
    "stateCode": "NY",
    "state": "New York",
    "stateFIPS": "36",
    "countyFIPS": "081",
    "countyName": "Queens County",
    "population": 109698,
    "lat": 40.7471,
    "lng": -73.8601,
    "slug": "corona-ny",
    "tier": 1
  },
  {
    "name": "Pueblo",
    "stateCode": "CO",
    "state": "Colorado",
    "stateFIPS": "08",
    "countyFIPS": "101",
    "countyName": "Pueblo County",
    "population": 109412,
    "lat": 38.2545,
    "lng": -104.6091,
    "slug": "pueblo",
    "tier": 1
  },
  {
    "name": "Pearland",
    "stateCode": "TX",
    "state": "Texas",
    "stateFIPS": "48",
    "countyFIPS": "039",
    "countyName": "Brazoria County",
    "population": 108821,
    "lat": 29.5636,
    "lng": -95.286,
    "slug": "pearland",
    "tier": 1
  },
  {
    "name": "Waterbury",
    "stateCode": "CT",
    "state": "Connecticut",
    "stateFIPS": "09",
    "countyFIPS": "140",
    "countyName": "Naugatuck Valley Planning Region",
    "population": 108802,
    "lat": 41.5582,
    "lng": -73.0515,
    "slug": "waterbury",
    "tier": 1
  },
  {
    "name": "Greeley",
    "stateCode": "CO",
    "state": "Colorado",
    "stateFIPS": "08",
    "countyFIPS": "123",
    "countyName": "Weld County",
    "population": 108795,
    "lat": 40.4233,
    "lng": -104.7091,
    "slug": "greeley",
    "tier": 1
  },
  {
    "name": "West Covina",
    "stateCode": "CA",
    "state": "California",
    "stateFIPS": "06",
    "countyFIPS": "037",
    "countyName": "Los Angeles County",
    "population": 108484,
    "lat": 34.0686,
    "lng": -117.9389,
    "slug": "west-covina",
    "tier": 1
  },
  {
    "name": "Enterprise",
    "stateCode": "NV",
    "state": "Nevada",
    "stateFIPS": "32",
    "countyFIPS": "003",
    "countyName": "Clark County",
    "population": 108481,
    "lat": 36.0253,
    "lng": -115.2419,
    "slug": "enterprise-nv",
    "tier": 1
  },
  {
    "name": "North Charleston",
    "stateCode": "SC",
    "state": "South Carolina",
    "stateFIPS": "45",
    "countyFIPS": "019",
    "countyName": "Charleston County",
    "population": 108304,
    "lat": 32.8546,
    "lng": -79.9748,
    "slug": "north-charleston",
    "tier": 1
  },
  {
    "name": "Everett",
    "stateCode": "WA",
    "state": "Washington",
    "stateFIPS": "53",
    "countyFIPS": "061",
    "countyName": "Snohomish County",
    "population": 108010,
    "lat": 47.979,
    "lng": -122.2021,
    "slug": "everett-wa",
    "tier": 1
  },
  {
    "name": "College Station",
    "stateCode": "TX",
    "state": "Texas",
    "stateFIPS": "48",
    "countyFIPS": "041",
    "countyName": "Brazos County",
    "population": 107889,
    "lat": 30.628,
    "lng": -96.3344,
    "slug": "college-station",
    "tier": 1
  },
  {
    "name": "Pompano Beach",
    "stateCode": "FL",
    "state": "Florida",
    "stateFIPS": "12",
    "countyFIPS": "011",
    "countyName": "Broward County",
    "population": 107762,
    "lat": 26.2379,
    "lng": -80.1248,
    "slug": "pompano-beach",
    "tier": 1
  },
  {
    "name": "South Fulton",
    "stateCode": "GA",
    "state": "Georgia",
    "stateFIPS": "13",
    "countyFIPS": "121",
    "countyName": "Fulton County",
    "population": 107436,
    "lat": 33.5926,
    "lng": -84.6729,
    "slug": "south-fulton",
    "tier": 1
  },
  {
    "name": "Norwalk",
    "stateCode": "CA",
    "state": "California",
    "stateFIPS": "06",
    "countyFIPS": "037",
    "countyName": "Los Angeles County",
    "population": 107140,
    "lat": 33.9022,
    "lng": -118.0817,
    "slug": "norwalk-ca",
    "tier": 1
  },
  {
    "name": "Boulder",
    "stateCode": "CO",
    "state": "Colorado",
    "stateFIPS": "08",
    "countyFIPS": "013",
    "countyName": "Boulder County",
    "population": 106803,
    "lat": 40.015,
    "lng": -105.2705,
    "slug": "boulder",
    "tier": 1
  },
  {
    "name": "Broken Arrow",
    "stateCode": "OK",
    "state": "Oklahoma",
    "stateFIPS": "40",
    "countyFIPS": "143",
    "countyName": "Tulsa County",
    "population": 106563,
    "lat": 36.0526,
    "lng": -95.7908,
    "slug": "broken-arrow",
    "tier": 1
  },
  {
    "name": "Daly City",
    "stateCode": "CA",
    "state": "California",
    "stateFIPS": "06",
    "countyFIPS": "081",
    "countyName": "San Mateo County",
    "population": 106562,
    "lat": 37.7058,
    "lng": -122.4619,
    "slug": "daly-city",
    "tier": 1
  },
  {
    "name": "Sandy Springs",
    "stateCode": "GA",
    "state": "Georgia",
    "stateFIPS": "13",
    "countyFIPS": "121",
    "countyName": "Fulton County",
    "population": 105330,
    "lat": 33.9243,
    "lng": -84.3785,
    "slug": "sandy-springs",
    "tier": 1
  },
  {
    "name": "Burbank",
    "stateCode": "CA",
    "state": "California",
    "stateFIPS": "06",
    "countyFIPS": "037",
    "countyName": "Los Angeles County",
    "population": 105319,
    "lat": 34.1808,
    "lng": -118.309,
    "slug": "burbank-ca",
    "tier": 1
  },
  {
    "name": "Green Bay",
    "stateCode": "WI",
    "state": "Wisconsin",
    "stateFIPS": "55",
    "countyFIPS": "009",
    "countyName": "Brown County",
    "population": 105207,
    "lat": 44.5192,
    "lng": -88.0198,
    "slug": "green-bay",
    "tier": 1
  },
  {
    "name": "Santa Maria",
    "stateCode": "CA",
    "state": "California",
    "stateFIPS": "06",
    "countyFIPS": "083",
    "countyName": "Santa Barbara County",
    "population": 105093,
    "lat": 34.953,
    "lng": -120.4357,
    "slug": "santa-maria",
    "tier": 1
  },
  {
    "name": "Universal City",
    "stateCode": "CA",
    "state": "California",
    "stateFIPS": "06",
    "countyFIPS": "037",
    "countyName": "Los Angeles County",
    "population": 105000,
    "lat": 34.1389,
    "lng": -118.3534,
    "slug": "universal-city-ca",
    "tier": 1
  },
  {
    "name": "Wichita Falls",
    "stateCode": "TX",
    "state": "Texas",
    "stateFIPS": "48",
    "countyFIPS": "485",
    "countyName": "Wichita County",
    "population": 104710,
    "lat": 33.9137,
    "lng": -98.4934,
    "slug": "wichita-falls",
    "tier": 1
  },
  {
    "name": "Lakeland",
    "stateCode": "FL",
    "state": "Florida",
    "stateFIPS": "12",
    "countyFIPS": "105",
    "countyName": "Polk County",
    "population": 104401,
    "lat": 28.0395,
    "lng": -81.9498,
    "slug": "lakeland-fl",
    "tier": 1
  },
  {
    "name": "Clovis",
    "stateCode": "CA",
    "state": "California",
    "stateFIPS": "06",
    "countyFIPS": "019",
    "countyName": "Fresno County",
    "population": 104180,
    "lat": 36.8252,
    "lng": -119.7029,
    "slug": "clovis-ca",
    "tier": 1
  },
  {
    "name": "Lewisville",
    "stateCode": "TX",
    "state": "Texas",
    "stateFIPS": "48",
    "countyFIPS": "121",
    "countyName": "Denton County",
    "population": 104039,
    "lat": 33.0462,
    "lng": -96.9942,
    "slug": "lewisville-tx",
    "tier": 1
  },
  {
    "name": "Tyler",
    "stateCode": "TX",
    "state": "Texas",
    "stateFIPS": "48",
    "countyFIPS": "423",
    "countyName": "Smith County",
    "population": 103700,
    "lat": 32.3513,
    "lng": -95.3011,
    "slug": "tyler",
    "tier": 1
  },
  {
    "name": "El Cajon",
    "stateCode": "CA",
    "state": "California",
    "stateFIPS": "06",
    "countyFIPS": "073",
    "countyName": "San Diego County",
    "population": 103679,
    "lat": 32.7948,
    "lng": -116.9625,
    "slug": "el-cajon",
    "tier": 1
  },
  {
    "name": "San Mateo",
    "stateCode": "CA",
    "state": "California",
    "stateFIPS": "06",
    "countyFIPS": "081",
    "countyName": "San Mateo County",
    "population": 103536,
    "lat": 37.563,
    "lng": -122.3255,
    "slug": "san-mateo",
    "tier": 1
  },
  {
    "name": "Brandon",
    "stateCode": "FL",
    "state": "Florida",
    "stateFIPS": "12",
    "countyFIPS": "057",
    "countyName": "Hillsborough County",
    "population": 103483,
    "lat": 27.9378,
    "lng": -82.2859,
    "slug": "brandon-fl",
    "tier": 1
  },
  {
    "name": "Rialto",
    "stateCode": "CA",
    "state": "California",
    "stateFIPS": "06",
    "countyFIPS": "071",
    "countyName": "San Bernardino County",
    "population": 103132,
    "lat": 34.1064,
    "lng": -117.3703,
    "slug": "rialto",
    "tier": 1
  },
  {
    "name": "Davenport",
    "stateCode": "IA",
    "state": "Iowa",
    "stateFIPS": "19",
    "countyFIPS": "163",
    "countyName": "Scott County",
    "population": 102582,
    "lat": 41.5236,
    "lng": -90.5776,
    "slug": "davenport",
    "tier": 1
  },
  {
    "name": "Edison",
    "stateCode": "NJ",
    "state": "New Jersey",
    "stateFIPS": "34",
    "countyFIPS": "023",
    "countyName": "Middlesex County",
    "population": 102548,
    "lat": 40.5187,
    "lng": -74.4121,
    "slug": "edison",
    "tier": 1
  },
  {
    "name": "Hillsboro",
    "stateCode": "OR",
    "state": "Oregon",
    "stateFIPS": "41",
    "countyFIPS": "067",
    "countyName": "Washington County",
    "population": 102347,
    "lat": 45.5229,
    "lng": -122.9898,
    "slug": "hillsboro",
    "tier": 1
  },
  {
    "name": "Las Cruces",
    "stateCode": "NM",
    "state": "New Mexico",
    "stateFIPS": "35",
    "countyFIPS": "013",
    "countyName": "Doa Ana County",
    "population": 101643,
    "lat": 32.3123,
    "lng": -106.7783,
    "slug": "las-cruces",
    "tier": 1
  },
  {
    "name": "South Bend",
    "stateCode": "IN",
    "state": "Indiana",
    "stateFIPS": "18",
    "countyFIPS": "141",
    "countyName": "St. Joseph County",
    "population": 101516,
    "lat": 41.6834,
    "lng": -86.25,
    "slug": "south-bend",
    "tier": 1
  },
  {
    "name": "Albany",
    "stateCode": "NY",
    "state": "New York",
    "stateFIPS": "36",
    "countyFIPS": "001",
    "countyName": "Albany County",
    "population": 101228,
    "lat": 42.6526,
    "lng": -73.7562,
    "slug": "albany-ny",
    "tier": 1
  },
  {
    "name": "New Bedford",
    "stateCode": "MA",
    "state": "Massachusetts",
    "stateFIPS": "25",
    "countyFIPS": "005",
    "countyName": "Bristol County",
    "population": 101079,
    "lat": 41.6353,
    "lng": -70.927,
    "slug": "new-bedford",
    "tier": 1
  },
  {
    "name": "Vista",
    "stateCode": "CA",
    "state": "California",
    "stateFIPS": "06",
    "countyFIPS": "073",
    "countyName": "San Diego County",
    "population": 100890,
    "lat": 33.2,
    "lng": -117.2425,
    "slug": "vista",
    "tier": 1
  },
  {
    "name": "Davie",
    "stateCode": "FL",
    "state": "Florida",
    "stateFIPS": "12",
    "countyFIPS": "011",
    "countyName": "Broward County",
    "population": 100882,
    "lat": 26.0629,
    "lng": -80.2331,
    "slug": "davie",
    "tier": 1
  },
  {
    "name": "Chinatown",
    "stateCode": "CA",
    "state": "California",
    "stateFIPS": "06",
    "countyFIPS": "075",
    "countyName": "San Francisco County",
    "population": 100574,
    "lat": 37.7966,
    "lng": -122.4086,
    "slug": "chinatown-ca",
    "tier": 1
  },
  {
    "name": "Renton",
    "stateCode": "WA",
    "state": "Washington",
    "stateFIPS": "53",
    "countyFIPS": "033",
    "countyName": "King County",
    "population": 100242,
    "lat": 47.4829,
    "lng": -122.2171,
    "slug": "renton",
    "tier": 1
  },
  {
    "name": "Roanoke",
    "stateCode": "VA",
    "state": "Virginia",
    "stateFIPS": "51",
    "countyFIPS": "770",
    "countyName": "Roanoke city",
    "population": 100011,
    "lat": 37.271,
    "lng": -79.9414,
    "slug": "roanoke",
    "tier": 1
  },
  {
    "name": "San Angelo",
    "stateCode": "TX",
    "state": "Texas",
    "stateFIPS": "48",
    "countyFIPS": "451",
    "countyName": "Tom Green County",
    "population": 99893,
    "lat": 31.4638,
    "lng": -100.437,
    "slug": "san-angelo",
    "tier": 1
  },
  {
    "name": "Kenosha",
    "stateCode": "WI",
    "state": "Wisconsin",
    "stateFIPS": "55",
    "countyFIPS": "059",
    "countyName": "Kenosha County",
    "population": 99858,
    "lat": 42.5847,
    "lng": -87.8212,
    "slug": "kenosha",
    "tier": 1
  },
  {
    "name": "Clinton Township",
    "stateCode": "MI",
    "state": "Michigan",
    "stateFIPS": "26",
    "countyFIPS": "099",
    "countyName": "Macomb County",
    "population": 99753,
    "lat": 42.587,
    "lng": -82.9199,
    "slug": "clinton-township",
    "tier": 1
  },
  {
    "name": "Columbia",
    "stateCode": "MD",
    "state": "Maryland",
    "stateFIPS": "24",
    "countyFIPS": "027",
    "countyName": "Howard County",
    "population": 99615,
    "lat": 39.2404,
    "lng": -76.8394,
    "slug": "columbia-md",
    "tier": 1
  },
  {
    "name": "Erie",
    "stateCode": "PA",
    "state": "Pennsylvania",
    "stateFIPS": "42",
    "countyFIPS": "049",
    "countyName": "Erie County",
    "population": 99475,
    "lat": 42.1292,
    "lng": -80.0851,
    "slug": "erie-pa",
    "tier": 1
  },
  {
    "name": "Portsmouth Heights",
    "stateCode": "VA",
    "state": "Virginia",
    "stateFIPS": "51",
    "countyFIPS": "740",
    "countyName": "Portsmouth city",
    "population": 99049,
    "lat": 36.821,
    "lng": -76.3688,
    "slug": "portsmouth-heights",
    "tier": 1
  },
  {
    "name": "Richmond Hill",
    "stateCode": "NY",
    "state": "New York",
    "stateFIPS": "36",
    "countyFIPS": "081",
    "countyName": "Queens County",
    "population": 98984,
    "lat": 40.6998,
    "lng": -73.8312,
    "slug": "richmond-hill-ny",
    "tier": 1
  },
  {
    "name": "Alief",
    "stateCode": "TX",
    "state": "Texas",
    "stateFIPS": "48",
    "countyFIPS": "201",
    "countyName": "Harris County",
    "population": 98725,
    "lat": 29.7111,
    "lng": -95.5963,
    "slug": "alief",
    "tier": 1
  },
  {
    "name": "Spring Hill",
    "stateCode": "FL",
    "state": "Florida",
    "stateFIPS": "12",
    "countyFIPS": "053",
    "countyName": "Hernando County",
    "population": 98621,
    "lat": 28.4769,
    "lng": -82.5255,
    "slug": "spring-hill-fl",
    "tier": 1
  },
  {
    "name": "Compton",
    "stateCode": "CA",
    "state": "California",
    "stateFIPS": "06",
    "countyFIPS": "037",
    "countyName": "Los Angeles County",
    "population": 98462,
    "lat": 33.8959,
    "lng": -118.2201,
    "slug": "compton",
    "tier": 1
  },
  {
    "name": "League City",
    "stateCode": "TX",
    "state": "Texas",
    "stateFIPS": "48",
    "countyFIPS": "167",
    "countyName": "Galveston County",
    "population": 98312,
    "lat": 29.5075,
    "lng": -95.0949,
    "slug": "league-city",
    "tier": 1
  },
  {
    "name": "Flint",
    "stateCode": "MI",
    "state": "Michigan",
    "stateFIPS": "26",
    "countyFIPS": "049",
    "countyName": "Genesee County",
    "population": 98310,
    "lat": 43.0125,
    "lng": -83.6875,
    "slug": "flint",
    "tier": 1
  },
  {
    "name": "Allen",
    "stateCode": "TX",
    "state": "Texas",
    "stateFIPS": "48",
    "countyFIPS": "085",
    "countyName": "Collin County",
    "population": 98143,
    "lat": 33.1032,
    "lng": -96.6705,
    "slug": "allen",
    "tier": 1
  },
  {
    "name": "Dorchester",
    "stateCode": "MA",
    "state": "Massachusetts",
    "stateFIPS": "25",
    "countyFIPS": "025",
    "countyName": "Suffolk County",
    "population": 97826,
    "lat": 42.2973,
    "lng": -71.0745,
    "slug": "dorchester",
    "tier": 1
  },